item,label,lon,lat
Q654341,Jardin botanique exotique de Menton,7.5112 , 43.7847
Q663149,Palmengarten,8.65806 , 50.1233
Q673757,Brissago Islands,8.735 , 46.133333333
Q673954,Arktisch-Alpiner Garten der Walter-Meusel-Stiftung,12.9399 , 50.8875
Q677516,Botanical Garden of Geneva,6.146666666 , 46.225
Q677602,Botanical Garden of the University of Vienna,16.384166666 , 48.1925
Q679067,Wilhelma,9.20306 , 48.8053
Q686324,Botanical Garden of the University of Zurich,8.561105555 , 47.358647222
Q697970,Q697970,11.0156 , 49.6025
Q707660,Botanischer Garten München-Nymphenburg,11.5017 , 48.1625
Q730948,Jardin des plantes,2.359722222 , 48.843888888
Q739334,Botanical Garden of Brussels,4.365278 , 50.854722
Q765568,Jardin botanique de la Charme,3.1238 , 45.7999
Q767907,Jardin botanique de Caen,-0.37159 , 49.1891
Q768376,The Japanese Garden,-118.481 , 34.1837
Q769851,Botanischer Garten Gera,12.0878 , 50.8758
Q770229,Q770229,139.849864 , 35.959842
Q776863,Shinjuku Gyoen,139.708333 , 35.688611
Q796229,Earl Burns Miller Japanese Garden,-118.12 , 33.7852
Q819663,Q819663,9.69876 , 52.3941
Q819811,Bergianska trädgården,18.046111111 , 59.369722222
Q820209,Späth-Arboretum,13.4748 , 52.4549
Q824180,Botanischer Garten der Universität des Saarlandes,7.0378 , 49.2545
Q824193,Sichtungsgarten Weihenstephan,11.728991666 , 48.400755555
Q827373,Botanischer Garten Universität Rostock,12.0931 , 54.0907
Q827398,Botanischer Garten Bielefeld,8.51 , 52.0147
Q827406,Forstbotanischer Garten Tharandt,13.57819 , 50.984363
Q827435,Q827435,20.517777777 , 54.737222222
Q827442,Usedom Botanical Gardens,14.016666666 , 53.916666666
Q830674,Botanischer Garten Schellerhau,13.6997 , 50.7678
Q831148,Buenos Aires Botanical Garden,-58.418597222 , -34.582469444
Q833862,Botanischer Garten Chemnitz,12.889 , 50.8495
Q834198,Botanischer Garten Gießen,8.67889 , 50.5864
Q836254,Exotenwald Weinheim,8.675 , 49.5408
Q838392,Kadoorie Farm and Botanic Garden,114.118 , 22.4335
Q841037,National Botanic Gardens,-6.271416666 , 53.372638888
Q841650,The State Botanical Garden of Georgia,-83.379472 , 33.901389
Q843141,"Nanjing Botanical Garden, Memorial Sun Yat-Sen",118.830833333 , 32.057222222
Q848416,Botanical Garden,19.23579 , 47.70917
Q848422,Botanical Garden of Naples,14.262462 , 40.861359
Q848820,Kiseki No Hoshi Greenhouse,135.00841667 , 34.56177778
Q870156,Rennsteiggarten Oberhof,10.7194 , 50.6925
Q870486,Botanischer Garten der Universität Ulm,9.96667 , 48.4194
Q870492,Stadtpark und Botanischer Garten Gütersloh,8.391 , 51.8979
Q871292,Botanischer Garten der Johannes Gutenberg-Universität Mainz,8.24369 , 49.9923
Q873682,Botanischer Garten der Technischen Universität Braunschweig,10.5331 , 52.2708
Q873964,Forstbotanischer Garten Köln,6.97944 , 50.885
Q873982,Herzogspark,12.0822 , 49.0231
Q874042,Botanischer Garten Krefeld,6.60306 , 51.3325
Q875233,Gruson-Gewächshäuser,11.6316 , 52.1138
Q875332,Botanischer Garten der Universität Heidelberg,8.66778 , 49.4148
Q875673,Botanische Staatssammlung München,11.5008 , 48.1641
Q877692,Botanischer Garten Münster,7.61056 , 51.9637
Q877915,Landesarboretum Baden-Württemberg,9.20778 , 48.7092
Q877942,Botanischer Garten der Universität Duisburg-Essen,6.98139 , 51.4281
Q878970,Lehmann-Garten,13.5273 , 53.1251
Q879081,Botanical garden of Düsseldorf,6.8025 , 51.1869
Q880814,Bunter Garten,6.43389 , 51.2039
Q882377,Botanischer Garten der Ruhr-Universität Bochum,7.2675 , 51.4419
Q883976,Botanischer Garten der TU Darmstadt,8.67861 , 49.8692
Q890543,Edgewood Botanic Garden,-122.56 , 37.9028
Q890625,Hakone Gardens,-122.041 , 37.2524
Q891066,Bois des Moutiers,0.98305556 , 49.91166667
Q891197,Bok Tower Gardens,-81.5775 , 27.935333
Q892711,University of Copenhagen Botanical Garden,12.573888888 , 55.686944444
Q894579,Public Garden,-71.0699 , 42.3541
Q894630,Q894630,13.395277777 , 52.604722222
Q894633,Q894633,8.85228 , 53.0663
Q894635,Yerevan Botanical Garden,44.557064 , 40.21083
Q894636,Madeira Botanical Garden,-16.89583333 , 32.66222222
Q894638,Q894638,-16.6755 , 13.478388888
Q894639,Bern Botanical Garden,7.444652777 , 46.952825
Q894642,Q894642,6.79725 , 51.4358
Q894643,Batumi Botanical Garden,41.719783333 , 41.692716666
Q894645,Botanische Garten der Martin-Luther-Universität Halle-Wittenberg,11.9614 , 51.4889
Q894646,Giardini Botanici Hanbury,7.55559 , 43.782698
Q894647,Q894647,10.1167 , 54.3481
Q894648,Jevremovac,20.47388889 , 44.81527778
Q894649,Q894649,15.07444382 , 50.77886082
Q894650,A.V. Fomin Botanical Garden,30.503888888 , 50.443055555
Q894651,Trauttmansdorff Castle Gardens,11.18555556 , 46.66027778
Q894652,Montreal Botanical Garden,-73.556805555 , 45.557222222
Q894653,Moscow Botanical Garden of Academy of Sciences,37.600833333 , 55.839166666
Q894654,Nikitsky Botanical Garden,34.2328 , 44.5094
Q894656,Orto botanico di Palermo,13.37361111 , 38.11194444
Q894657,Beijing Botanical Garden,116.20934 , 39.992789
Q894658,Botanical Gardens of Tirana,19.80604167 , 41.30991111
Q894659,Q894659,-21.87 , 64.14166667
Q894660,National Botanical Garden of Georgia,44.8075 , 41.686111111
Q894661,Zagreb Botanical Garden,15.971782 , 45.804864
Q894664,Jardin botanique de la Ville de Paris,2.36 , 48.844722222
Q894665,Cambridge University Botanic Garden,0.12789 , 52.1938
Q894668,Q894668,9.23472 , 49.1512
Q894670,Orto botanico di Pisa,10.395833333 , 43.719722222
Q895589,Forstbotanischer Garten Eberswalde,13.7961 , 52.8251
Q895891,Boyce Thompson Arboretum State Park,-111.158333333 , 33.279166666
Q910282,Palmitos Park,-15.616111111 , 27.835277777
Q4998,Ringve Botanical Garden,10.4523 , 63.4483
Q8668,Jardin botanique de Lyon,4.8564 , 45.7754
Q24185,Exbury Gardens,-1.4005 , 50.7986
Q24433,Gibraltar Botanic Gardens,-5.3511 , 36.1313
Q45242,Rio de Janeiro Botanical Garden,-43.223889 , -22.9675
Q54489,Royal Botanic Gardens,151.2175 , -33.862222
Q56046,Boxerwood Gardens,-78.85 , 38.4833
Q63203,Hiroshima Botanical Garden,132.34694444 , 34.39191667
Q94923,Botanical Garden of Curitiba,-49.23944444 , -25.44277778
Q153256,Ruth Bancroft Garden,-122.037 , 37.9238
Q153541,Botanical Garden of Mérida,-71.133333333 , 8.616666666
Q153748,Q153748,50.183 , 53.02
Q153829,Alter Botanischer Garten,11.5641 , 48.1416
Q163255,Botanic Garden and Botanical Museum Berlin-Dahlem,13.3036 , 52.455
Q174823,Ökologisch-Botanischer Garten der Universität Bayreuth,11.5854 , 49.9235
Q188617,Kew Gardens,-0.295466666 , 51.474666666
Q195786,Q195786,14.4154 , 50.1187
Q200711,Lal Bagh,77.59 , 12.95
Q202120,Luisenpark,8.4974 , 49.4827
Q220064,Parc Zoologique et Botanique de Mulhouse,7.34794444 , 47.73616667
Q225403,Botanischer Garten Rombergpark,7.4684 , 51.4807
Q256160,King's House on Schachen,11.112586111 , 47.419697222
Q262120,Olive Pink Botanic Garden,133.885 , -23.7064
Q289277,Kirstenbosch National Botanical Garden,18.430277777 , -33.989444444
Q296170,Botanischer Garten der Universität Osnabrück,8.02793 , 52.2814
Q317714,Botanischer Garten Jena,11.5861 , 50.9311
Q318081,Botanischer Garten Wuppertal,7.16055556 , 51.26027778
Q319334,Botanischer Garten der Johann Wolfgang Goethe-Universität Frankfurt am Main,8.65833 , 50.1272
Q320082,Flora und Botanischer Garten Köln,6.97083 , 50.9611
Q321565,Botanical Garden,13.0252 , 52.4041
Q321575,Botanischer Garten der Technischen Universität Dresden,13.7596 , 51.0442
Q322634,Botanische Gärten der Friedrich-Wilhelms-Universität Bonn,7.09167 , 50.7247
Q323124,Botanischer Garten Erlangen,11.0067 , 49.5992
Q323954,Leipzig Botanical Garden,12.3913 , 51.3287
Q323980,Botanischer Garten Marburg,8.80938 , 50.803
Q328081,Rosarium Uetersen,9.66981 , 53.6838
Q328729,Rhododendron-Park Bremen,8.88611 , 53.0917
Q328848,Freiburg Botanical Garden,7.85833 , 48.0097
Q373040,Parc botanique de Kerbihan,-3.2677 , 47.806
Q378480,Jardin des Olfacties,-1.7628 , 46.6968
Q384815,East Texas Arboretum and Botanical Society,-95.8785 , 32.2129
Q385057,Cornell Plantations,-76.472 , 42.45
Q429533,Q429533,3.06466389 , 39.3423
Q437788,"Old Botanical Garden, Kiel",10.1469 , 54.3308
Q437790,Alter Botanischer Garten Marburg,8.77236 , 50.8124
Q437802,"Old Botanical Garden, Zurich",8.533611111 , 47.371111111
Q446505,Europa-Rosarium,11.3148 , 51.4752
Q458588,Belle Isle Park,-82.9867 , 42.3403
Q474085,Botanischer Garten Augsburg,10.9148 , 48.3499
Q475580,Botanischer Garten Karlsruhe,8.40044 , 49.0131
Q478245,Inhotim,-44.218785 , -20.124128
Q478839,Arizona-Sonora Desert Museum,-111.168055555 , 32.243888888
Q486315,Yeomiji Botanical Garden,126.415 , 33.2518
Q503498,Jerusalem Botanical Gardens,35.200088 , 31.76873
Q509884,Australian National Botanic Gardens,149.109166666 , -35.278888888
Q510585,Albury Botanic Gardens,146.909 , -36.081
Q517377,Jardin botanique de la Font de Bézombes,3.50416667 , 43.65055556
Q527767,Bursa Botanic Park,29.039497 , 40.219463
Q528505,Rotary Botanical Gardens,-89.0164 , 42.6839
Q536819,Lauritzen Gardens,-95.9161 , 41.2344
Q538819,Memphis Botanic Garden,-89.9595 , 35.1241
Q543379,Oregon Garden,-122.792 , 44.9952
Q558491,Fell Arboretum,-88.9935 , 40.5108
Q559261,Washington Park,-89.65 , 39.783
Q570148,Old Botanical Garden of Göttingen University,9.9367 , 51.5382
Q574117,Starhill Forest Arboretum,-89.8017 , 39.935
Q574773,Herrenhausen Gardens,9.698333333 , 52.391666666
Q577644,Ladd Arboretum,-87.7006 , 42.0568
Q582317,Q582317,2.9111 , 42.9331
Q589884,San Francisco Botanical Garden,-122.47 , 37.7675
Q596723,Cluj-Napoca Botanical Garden,23.5867 , 46.7603
Q598892,Orto botanico di Padova,11.880555555 , 45.398888888
Q600792,University of Basel Botanical Garden,7.581666666 , 47.558611111
Q600863,Gardens of Augustus,14.24338889 , 40.54750278
Q604550,jardin des serres d'Auteuil,2.252222 , 48.846944
Q604699,Lilacia Park,-88.0205 , 41.8852
Q606827,Jindai Botanical Garden,139.54591 , 35.67136
Q607584,Sonnenberg Gardens and Mansion State Historic Park,-77.2725 , 42.9
Q609012,The Gardens at SIUE,-89.9928 , 38.8088
Q609930,Dinosaur State Park and Arboretum,-72.6568 , 41.6505
Q609992,Red Butte Garden and Arboretum,-111.824 , 40.766
Q613250,Botanischer Garten Hamburg,9.86111111 , 53.56222222
Q615695,Gardenview Horticultural Park,-81.8319 , 41.3128
Q618248,Inniswood Botanical Garden and Nature Preserve,-82.9214 , 40.1236
Q618523,Cox Arboretum and Gardens MetroPark,-84.2241 , 39.6552
Q621956,Chadwick Arboretum,-83.0298 , 40.0095
Q621967,Stanley M. Rowe Arboretum,-84.3397 , 39.1992
Q623333,Cincinnati Zoo and Botanical Garden,-84.508 , 39.145
Q628828,Stanford University Arboretum,-122.168 , 37.433
Q629949,Cape Fear Botanical Garden,-78.8589 , 35.0542
Q630118,Jardin botanique de la Ville de Nice,7.2101 , 43.6851
Q630395,Arboretum Bad Grund,10.2286 , 51.8199
Q630410,Ellerhoop-Thiensen Arboretum,9.77642 , 53.7173
Q630433,Arboretum Lohbrügge,10.19916667 , 53.50388889
Q630459,Arboretum Park Härle,7.16911 , 50.7152
Q632716,Domaine du Rayol,6.4806 , 43.1554
Q632833,Lancetilla Botanical Garden,-87.41666667 , 15.75
Q633365,Japanese Friendship Garden,-121.861111111 , 37.322222222
Q636275,New York Botanical Garden,-73.878333 , 40.863611
Q2859716,Arboretum de la Vallée-aux-Loups,2.26861111 , 48.77277778
Q2859717,Poërop Arboretum,-3.74 , 48.357
Q2859718,Arboretum de l'École du Breuil,2.45638889 , 48.82138889
Q2859723,Arboretum municipal de Verrières-le-Buisson,2.27027778 , 48.75166667
Q2876503,Giardino delle Orchidee Spontanee del Mediterraneo,12.08333333 , 41.95
Q2878518,Q2878518,125.7467998 , 39.0187
Q2879127,Giardino Botanico di Valbonella,11.78 , 43.86
Q2879615,Q2879615,28.28333333 , -15.41666667
Q2881810,Bambouseraie de Prafrance,3.9772224 , 44.0703204
Q2882456,Orto Botanico di Brera,9.1871 , 45.4727
Q2883914,York Museum Gardens,-1.08806 , 53.9614
Q2886410,Lotusland,-119.657 , 34.443
Q2886576,Houston Arboretum and Nature Center,-95.452 , 29.7652
Q2887063,Huckleberry Botanic Regional Preserve,-122.19 , 37.845
Q2889004,Q2889004,-70.24916667 , 8.63527778
Q2893656,Q2893656,-116.995192 , 32.6424543
Q2894419,Jardin Musée de Limeuil,0.88916667 , 44.88638889
Q2896269,Robert Allerton Park,-88.65 , 39.998
Q2915575,Queen Sirikit Park,100.55 , 13.80666667
Q2916832,"Orto Botanico delle Alpi Apuane ""Pietro Pellegrini""",10.19070278 , 44.05789722
Q2917011,Q2917011,24.0387 , 56.9533
Q2917039,Giardino Botanico Alpino di Passo Coe,11.18333333 , 45.91666667
Q2919730,Chicago Botanic Garden,-87.79 , 42.148333333
Q2919885,Q2919885,-79.9087754 , -2.0798505
Q2943261,Cave Hill Cemetery,-85.715833 , 38.245556
Q2944918,Jardin botanique de la Presle,3.86888889 , 49.09888889
Q2969934,Château de Mongenan,-0.430833333 , 44.696111111
Q2994484,Jardin des Plantes Sauvages du Conservatoire botanique national de Bailleul,2.75305556 , 50.74666667
Q2994486,Conservatoire botanique national de Brest,-4.4473 , 48.4021
Q2994490,Conservatoire botanique national méditerranéen de Porquerolles,6.1959 , 42.9968
Q2994530,Conservatoire du Bégonia,-0.9558 , 45.9245
Q2994542,"Conservatoire National des Plantes à Parfum, Médicinales, Aromatiques et Industrielles",2.47916667 , 48.39694444
Q3003810,Denver Botanic Gardens,-104.960833 , 39.7325
Q3026688,Zoo Miami,-80.4001 , 25.6077
Q3028259,Jardim Botânico de São Paulo,-46.6203 , -23.639
Q3034611,Q3034611,2.0237 , 47.7272
Q3034795,Ljubljana Botanical Garden,14.5145 , 46.0405
Q3046409,Singapore Botanic Gardens,103.8162 , 1.3151
Q3048736,Edwards Gardens,-79.3594 , 43.7339
Q3052500,National Botanic Garden of Belgium,4.328055555 , 50.929722222
Q3064716,Botaniska trädgården,13.20277778 , 55.70388889
Q3065485,Jardin botanique de Bayonne,-1.4793 , 43.4923
Q3068815,Jardin botanique littoral Paul Jovet,-1.6512 , 43.4043
Q3075676,University of Helsinki Botanical Garden,24.9475 , 60.1722
Q3076985,Jardin botanique de l'Arquebuse,5.0279 , 47.3214
Q3079714,Q3079714,-66.8982 , 10.496
Q3089144,Wave Hill,-73.913056 , 40.898611
Q3098339,Garfield Park,-87.717222 , 41.886389
Q3100546,Jardin des plantes de Montpellier,3.8717 , 43.6143
Q3106834,Kyoto Botanical Garden,135.76111111 , 35.04833333
Q3115229,Botanic,-5.931 , 54.582
Q3116396,University Botanical Garden,10.770024 , 59.917462
Q3119056,"Royal Botanical Gardens, Sri Lanka",80.5956 , 7.27111
Q3127505,Harmas de Fabre,4.84055556 , 44.1875
Q3139233,National Botanic Garden of Wales,-4.15176 , 51.8376
Q3162283,Jardin Dominique Alexandre Godron,6.189 , 48.6948
Q3162322,Jardin Georges Delaselle,-3.9929 , 48.7396
Q3162356,jardin Royal,1.45028 , 43.5956
Q3162373,Jardin Massart,4.43806 , 50.8139
Q3162376,"Manyo Botanical Garden, Nara",135.848 , 34.6814
Q3162378,Q3162378,-71.2882 , 46.7789
Q3162380,Jaÿsinia,6.7265 , 46.085
Q3162382,Giardino Botanico Alpino Saussurea,6.96666667 , 45.78333333
Q3162383,Q3162383,-2.16055556 , 43.24
Q3162384,Q3162384,55.9919 , 54.7355
Q3162387,Jardin botanique de Besançon,6.0145 , 47.2433
Q3162390,Jardin botanique de Bordeaux,-0.563402777 , 44.846483333
Q3162391,Q3162391,128.613 , 37.7034
Q3162393,Curepipe Botanic Gardens,57.5244 , -20.3291
Q3162397,Jardin botanique de Gondremer,6.7225 , 48.2925
Q3162398,Q3162398,15.1 , -5.133
Q3162401,Q3162401,5.56138 , 50.635
Q3162402,Jardin botanique de Marnay-sur-Seine,3.55 , 48.5
Q3162403,Jardin botanique de Metz,6.1609 , 49.1045
Q3162405,Q3162405,-63.069722222 , -17.77
Q3162406,Q3162406,84.945833333 , 56.466388888
Q3162407,Q3162407,2.70959 , 39.7646
Q3162410,Tsukuba Botanical Garden,140.112 , 36.1014
Q3162411,Jardin botanique de Tours,0.66666667 , 47.38777778
Q3162414,Q3162414,38.967 , 45.033
Q3162415,University of Leicester Botanic Garden,-1.0926 , 52.6067
Q3162418,Innsbruck University Botanic Garden,11.3798 , 47.2678
Q3162421,Jardin botanique de l'Université de Rennes,-1.64 , 48.11777778
Q3162423,Jardin botanique de la Faculté de Pharmacie d'Angers,-0.5584 , 47.48
Q3162424,Jardin botanique du Montet,6.153611111 , 48.659444444
Q3162425,Jardin botanique alpin du Lautaret,6.4002 , 45.036
Q3162426,Jardin botanique du Tourmalet,0.145 , 42.90833333
Q3162427,National Botanical Garden of Grandvaux Barbosa,-23.6042 , 15.0542
Q1995650,Arboretum du Haut Jacques,6.8625 , 48.275
Q1996071,Botanic Garden of the Irkutsk State University,104.248333333 , 52.261944444
Q2011703,Arboretum de Chèvreloup,2.11166667 , 48.83027778
Q2028223,Atlanta Botanical Garden,-84.37172 , 33.7926
Q2035053,Giardino Botanico Fondazione André Heller,10.561944444 , 45.620833333
Q2066407,Cheekwood Botanical Garden and Museum of Art,-86.873889 , 36.086667
Q2066962,Zugdidi Botanical Garden,41.8781 , 42.5114
Q2077168,"Giardino Botanico Alpino ""Castel Savoia""",7.85361111 , 45.78277778
Q2095464,Vizcaya Museum and Gardens,-80.210278 , 25.743611
Q2115661,University of Oxford Botanic Garden,-1.248333333 , 51.750555555
Q2116241,Orto Botanico Riserva Lago di Penne,13.903617 , 42.442079
Q2148221,Q2148221,14.0853 , 50.9569
Q2148228,Rhododendron State Park,-72.1917 , 42.7847
Q2155115,Wahiawa Botanical Garden,-158.01779 , 21.50307
Q2169130,Andromeda Gardens,-59.51809 , 13.20728
Q2171140,Royal Tasmanian Botanical Gardens,147.3304 , -42.8652
Q2178787,St. George Village Botanical Garden,-64.83556 , 17.71417
Q2197914,Q2197914,112.740833 , -7.8
Q2249320,Q2249320,-9.15 , 38.73333333
Q2278413,Sherman Library and Gardens,-117.873 , 33.6024
Q2279669,Botanical Garden of the University of Coimbra,-8.4214 , 40.2058
Q2295836,University of Ferrara Botanic Garden,11.6238 , 44.8432
Q2313437,Bartram's Garden,-75.2125 , 39.930556
Q2329546,Q2329546,2.801944 , 41.676667
Q2330591,The Kampong,-80.249722 , 25.714722
Q2364115,Sukkulenten-Sammlung Zürich,8.535 , 47.356111111
Q2366770,Kahanu Garden,-156.038333 , 20.799167
Q2369971,Oak Hill Cemetery,-77.0592 , 38.9127
Q2371438,Shanghai Botanical Garden,121.43805556 , 31.14777778
Q2371650,Benmore Botanic Garden,-4.9893 , 56.0262
Q2376002,Central Botanical Garden,27.6125 , 53.916111111
Q2400780,Jardins de Salagon,5.765333 , 43.936426
Q2407553,Conservatoire botanique national de Mascarin,55.2953 , -21.1377
Q2426340,Garden in the Woods,-71.4265 , 42.3412
Q2435716,Turtle Bay Exploration Park,-122.378 , 40.5911
Q2439271,Logan Botanic Garden,-4.956944444 , 54.743888888
Q2444945,Nong Nooch Tropical Botanical Garden,100.933333333 , 12.766666666
Q2447822,Wellington Botanic Garden,174.766 , -41.2829
Q2455793,National Tropical Botanical Garden,-159.511 , 21.9067
Q2455990,Troy University Arboretum,-85.958 , 31.794
Q2466506,UBC Botanical Garden and Centre for Plant Research,-123.25 , 49.253333333
Q2466783,Institute of Plant Industry,30.308611 , 59.931944
Q2468128,Hortus Botanicus Leiden,4.484167 , 52.156111
Q2483537,Frederik Meijer Gardens & Sculpture Park,-85.591 , 42.981
Q2485977,Lyon Arboretum,-157.802 , 21.333
Q2494098,Zhan Garden,118.78 , 32.0224
Q2498387,Utrecht University Botanic Gardens,5.1725 , 52.0883
Q2511206,Q2511206,0.96833333 , 49.91527778
Q2539422,North Carolina Arboretum,-82.609 , 35.4976
Q2563728,Bali Botanic Garden,115.1544 , -8.2778
Q2566136,Desert Botanical Garden,-111.944 , 33.463
Q2585168,Winterthur Museum and Country Estate,-75.600833 , 39.805833
Q2605209,Jardí Botànic de Barcelona,2.1587 , 41.3618
Q2606130,McBryde Garden,-159.47633 , 21.88263
Q2610973,Hortus Botanicus Vrije Universiteit Amsterdam,4.860555555 , 52.332777777
Q2616933,Bucharest Botanical Garden,26.06364722 , 44.4379
Q2619332,Botanic Garden of the Jagiellonian University,19.957438 , 50.062346
Q2634943,Sukhumi botanical garden,41.023611111 , 43.006111111
Q2645392,Lady Bird Johnson Wildflower Center,-97.8706 , 30.1853
Q2656932,Berry Botanic Garden,-122.66 , 45.4429
Q2684773,Toronto Botanical Garden,-79.3582 , 43.7343
Q2692902,Q2692902,147.1969 , -9.4655
Q2721720,Q2721720,-1.61222222 , 43.13944444
Q2738912,The Gardens of the American Rose Center,-93.9211 , 32.4681
Q2739057,Arboretum de l'Abiétinée,6.19486111 , 48.70836667
Q2739331,Jardin des Plantes d'Angers,-0.5445 , 47.4748
Q2743795,Jardin botanique de l'Université de Strasbourg,7.766666666 , 48.583611111
Q2744187,Allerton Garden,-159.49283 , 21.88567
Q2745210,Mitchell Park Horticultural Conservatory,-87.946 , 43.0264
Q2788697,Hortus Bulborum,4.693056 , 52.563889
Q2794125,Koko Crater Botanical Garden,-157.681 , 21.2869
Q2834322,Serres municipales de Sens,3.279 , 48.1858
Q2835200,Jardin botanique du Château de Vauville,-1.845277777 , 49.635
Q2836812,Orto Botanico Comunale di Lucca,10.51143056 , 43.84144722
Q2836840,Q2836840,73.0772 , 31.41649983
Q2840327,Q2840327,-2.2 , 37.7
Q2842754,Hokkaido University Botanical Gardens,141.34247222 , 43.06366667
Q2843476,Rio Grande Botanic Garden,-106.681 , 35.0933
Q2843537,Henry Foundation for Botanical Research,-75.2833 , 40.0333
Q2859688,Q2859688,0.076636 , 48.424409
Q2859691,Arboretum Gaston Allard,-0.5425 , 47.451
Q2859692,Arboretum Robert Ruffier-Lanche,5.777778 , 45.194167
Q2859693,Arboretum Marcel Kroenlein,7.088333333 , 44.096111111
Q2859694,Arboretum Saint-Antoine,3.911944444 , 48.041666666
Q2859697,Arboretum Vilmorin,2.268323 , 48.749879
Q2859700,Arboretum d'Harcourt,0.788 , 49.173
Q2859701,Arboretum d'Amance,6.336 , 48.7513
Q2859703,Arboretum de Balaine,3.2464 , 46.697
Q2859705,Arboretum de La Roche-Guyon,1.63972222 , 49.09888889
Q2859706,Arboretum de Puéchagut,3.571666666 , 43.990555555
Q2859707,Arboretum de Grignon,1.9433 , 48.8476
Q2859708,Arboretum de Ripaille,6.50088056 , 46.39154444
Q2859709,Arboretum de l'Hort de Dieu,3.581388888 , 44.120833333
Q2859711,Arboretum de la Fosse,0.846462 , 47.776436
Q2859712,Arboretum de la Foux,3.384722222 , 44.131666666
Q2859713,Arboretum de la Hutte,6.033333333 , 48.033333333
Q2859714,Arboretum des Grands Murcins,5.1426 , 46.2036
Q2859715,Arboretum du Chêne-Vert,0.7206 , 45.881111111
Q927658,Lloyd's Botanical Garden,88.2629 , 27.0446
Q930638,Boerner Botanical Gardens,-88.0313 , 42.9363
Q943407,Q943407,-9.14895 , 38.7181
Q943874,Amy B. H. Greenwell Ethnobotanical Garden,-155.911833 , 19.491417
Q944730,Parc Arboretum de Montfermeil,2.569706 , 48.896631
Q946082,New Brunswick Botanical Garden,-68.397222222 , 47.443055555
Q946301,University of Tartu Botanical Gardens,26.721153 , 58.384663
Q949061,Pépinières Arboretum Adeline,2.98944444 , 47.1725
Q956772,Gothenburg Botanical Garden,11.95038889 , 57.68288056
Q963825,Von Gimborn Arboretum,5.30833 , 52.0333
Q964899,Birmingham Botanical Gardens,-1.9293 , 52.4665
Q967219,Giardini Botanici di Stigliano,12.1 , 42.13333333
Q967401,North American Plant Collections Consortium,-75.6744 , 39.8694
Q971049,Gardens at Heather Farm,-122.043 , 37.9189
Q971355,"University of California, Irvine Arboretum",-117.853 , 33.6635
Q973233,Jardin de Balata,-61.01583333 , 14.69027778
Q974244,Jardins du Nouveau Monde,3.1533 , 49.5183
Q974285,Ventnor Botanic Garden,-1.2278 , 50.5892
Q976405,"Government Botanical Gardens, Ooty",76.711038 , 11.418752
Q977761,Giardino Officinale di Marzana,11.01388889 , 45.5025
Q979670,Bogotá Botanical Garden,-74.100198 , 4.668211
Q991258,Elm Bank Horticulture Center,-71.3025 , 42.276111
Q996541,Farnese Gardens,12.486388888 , 41.890277777
Q1010308,Giardino Botanico Santicelli,16.55 , 38.68333333
Q1026407,Kebun Raya Cibodas,107.005556 , -6.742222
Q1054097,Giardino botanico Clelia Durazzo Grimaldi,8.81694444 , 44.43055556
Q1064892,Koishikawa Botanical Gardens,139.75 , 35.71666667
Q1069148,Chelsea Physic Garden,-0.162777777 , 51.485
Q1071076,Garden of Ninfa,12.95527778 , 41.58222222
Q1072277,"Orto Botanico dell'Università di Roma ""La Sapienza""",12.465853 , 41.892296
Q1082578,"Bergamo Botanical Garden ""Lorenzo Rota""",9.65777778 , 45.70777778
Q1099139,North Carolina Botanical Garden,-79.0339 , 35.8994
Q1119013,VanDusen Botanical Garden,-123.132222222 , 49.239722222
Q1120504,Giardino Botanico della Majella,14.190686 , 42.046793
Q1123665,Bogor Botanical Gardens,106.8 , -6.6
Q1129875,Alaska Botanical Garden,-149.76 , 61.176944444
Q1129930,Longwood Gardens,-75.6747 , 39.8712
Q1145112,Orto Botanico dell'Università di Bologna,11.3536 , 44.5006
Q1151078,College of the Desert Arboretum,-116.387 , 33.7333
Q1152424,Giardini Botanici Villa Taranto,8.53333333 , 45.93333333
Q1162245,Q1162245,-25.3200531 , 37.77344551
Q1186086,Christchurch Botanic Gardens,172.621153 , -43.530417
Q1189287,Rusch Botanical Gardens,-121.299 , 38.7083
Q1264942,Dumbarton Oaks,-77.0635 , 38.9139
Q1296160,Botanischer Schulgarten Burg,9.69306 , 52.3986
Q1303386,Jardín Botánico Canario Viera y Clavijo,-15.46333 , 28.06361
Q1360424,Brooklyn Botanic Garden,-73.963611111 , 40.667722222
Q1368384,Q1368384,10.7039 , 53.8693
Q1378297,Victoria Botanical Gardens,55.4512 , -4.631
Q1384208,Jardin Exotique de Monaco,7.413889 , 43.732222
Q1393011,Jensen Botanical Gardens,-121.321 , 38.6394
Q1415481,Arboretum de Villardebelle,2.38333333 , 43.01666667
Q1425474,Botanical garden of Upper Brittany,-1.26083333 , 48.42972222
Q1439933,Society of the Four Arts,-80.0422 , 26.7064
Q1442657,Luther Burbank's Gold Ridge Experiment Farm,-122.834722 , 38.396667
Q1472957,Q1472957,12.2286 , 54.2531
Q1515798,Linnaean Garden,17.633888888 , 59.862222222
Q1576596,Q1576596,9.04611 , 44.3808
Q1576733,Hortus Botanicus,4.908441666 , 52.366969444
Q1588999,Waimea Valley,-158.052 , 21.6339
Q1635335,Allan Gardens,-79.374444444 , 43.661666666
Q1636774,Westonbirt Arboretum,-2.22924 , 51.6059
Q1638880,Giardino Alpino Paradisia,7.33698 , 45.58506
Q1644473,Schau- und Sichtungsgarten Hermannshof,8.6697 , 49.5477
Q1645232,Giardino Botanico Alpinia,8.51666667 , 45.88333333
Q1666801,International Peace Garden,-100.059491 , 49.0
Q1671713,Inverewe Garden,-5.60417 , 57.775
Q1671734,Trelissick Garden,-5.03351 , 50.2169
Q1683445,Q1683445,7.07783 , 47.41422
Q1683458,Q1683458,-4.426357 , 36.760654
Q1683460,Q1683460,-4.511127 , 36.631169
Q1690700,Tropenhaus Frutigen,7.656080555 , 46.593255555
Q1765144,Orto Botanico dell'Università di Pavia,9.16355 , 45.1856
Q1770187,University of Alabama Arboretum,-87.4806 , 33.1935
Q1771324,Jardin d'Oiseaux Tropicaux,6.23444444 , 43.13805556
Q1779489,Arctic-alpine Botanic Garden,18.9763 , 69.6768
Q1794620,Q1794620,19.4067 , 51.7564
Q1794858,Real Jardín Botánico de Madrid,-3.690441 , 40.411094
Q1795487,Drew University,-74.427 , 40.761
Q1799639,Jardín de Cactus,-13.476281 , 29.0804
Q1807521,Royal Botanic Garden Edinburgh,-3.206661111 , 55.965602777
Q1848855,United States Botanic Garden,-77.013 , 38.888
Q1852803,Missouri Botanical Garden,-90.2589 , 38.6141
Q1867975,Butterfly World,-80.1713 , 26.2684
Q1872824,Arboretum Trompenburg,4.518056 , 51.919167
Q1875558,Orto Botanico di Firenze,11.26083 , 43.77889
Q1890086,Limahuli Garden and Preserve,-159.576 , 22.2203
Q1890779,The Arboretum at Flagstaff,-111.731 , 35.1603
Q1907213,Q1907213,8.57869 , 47.3847
Q1923740,Fairchild Tropical Botanic Garden,-80.2737 , 25.6787
Q1937407,Minnetrista,-85.38963 , 40.20577
Q1950363,Mount Auburn Cemetery,-71.145833333 , 42.370555555
Q1957821,Botanical gardens Wageningen,5.6948 , 51.9659
Q1970380,Chișinău Botanical Garden,28.88333333 , 46.97583333
Q1970601,Tallinn Botanic Garden,24.87818 , 59.46986
Q1971774,Dawyck Botanic Garden,-3.3231 , 55.6031
Q1990013,Saint Petersburg Botanical Garden,30.323611111 , 59.970277777
Q7054752,North Central Oklahoma Cactus Botanical Garden,-97.5894 , 36.3061
Q7059390,Northfield Park Arboretum,-103.669 , 41.8353
Q7069905,Nunobiki Herb Garden,135.19222222 , 34.71527778
Q7073668,Oak Park Conservatory,-87.789444 , 41.871389
Q7074096,Oaklawn Garden,-89.802 , 35.0802
Q7076776,Mukōjima-Hyakkaen Garden,139.815444 , 35.724194
Q7082118,Oklahoma Botanical Garden and Arboretum,-97.1026 , 36.1207
Q7082160,Oklahoma City Zoo and Botanical Garden,-97.4724 , 35.5212
Q7083331,Olcott Park Greenhouse,-92.5479 , 47.5285
Q7084007,Old Forest Arboretum of Overton Park,-89.989167 , 35.146667
Q7088789,Olu Pua Botanical Garden and Plantation,-159.51694444 , 21.95972222
Q7090650,Omoro Botanical Garden,127.87752778 , 26.69105556
Q7103359,Orman House,-84.99 , 29.7292
Q7105045,"Orto Botanico ""G.E. Ghirardi""",10.61666667 , 45.65
Q7105047,"Orto Botanico ""Pierina Scaramella""",12.60416667 , 43.75361111
Q7105048,"Orto Botanico ""Pania di Corfino""",10.33416667 , 44.17305556
Q7105049,Orto Botanico Conservativo Francesco Busnello,12.25 , 45.66666667
Q7105051,Orto Botanico Conservativo Carlo Spegazzini,12.25 , 45.66666667
Q7105052,Orto Botanico Didattico Sperimentale dell'Università di Milano,9.22642222 , 45.4749
Q7105053,Orto Botanico Locatelli,12.23805556 , 45.49055556
Q7105055,Orto Botanico dei Frignoli,10.13333333 , 44.23333333
Q7105056,Orto Botanico del Mediterraneo,10.31419167 , 43.53578333
Q7105057,Orto Botanico dell'Università Politecnica delle Marche,13.426397 , 43.56774
Q7105059,Orto Botanico dell'Università dell'Aquila,13.406185 , 42.342667
Q7105060,Orto Botanico dell'Università della Calabria,16.25361111 , 39.29527778
Q7105061,Orto Botanico dell'Università della Tuscia,12.065 , 42.44222222
Q7105063,Orto Botanico dell'Università di Bari,16.883073 , 41.10759
Q7105064,Orto Botanico dell'Università di Camerino,13.06383056 , 43.13181944
Q7105065,Orto Botanico dell'Università di Genova,8.93388889 , 44.40694444
Q7105067,Orto Botanico dell'Università di Modena e Reggio Emilia,10.9331 , 44.6482
Q7105069,Orto Botanico dell'Università di Tor Vergata,12.60333333 , 41.85361111
Q7105071,Orto Botanico dell'Università di Trieste,13.74722222 , 45.69444444
Q7105072,Orto Botanico di Cascina Rosa,9.1871 , 45.4727
Q7105075,Orto Botanico di Portici,14.34027778 , 40.8175
Q7105076,Orto Botanico di Montemarcello,9.95 , 44.06666667
Q7105097,Orton Plantation,-77.946389 , 34.060556
Q7105597,Osaka Prefectural Flowers Garden,135.55355556 , 34.43427778
Q7108457,Otari-Wilton's Bush,174.759 , -41.2673
Q7124860,Paine Art Center and Gardens,-88.558333 , 44.035278
Q7128121,Palma Sola Botanical Park,-82.66 , 27.5135
Q7132513,Papatia Botanical Garden,2.3158 , 9.3076
Q7136364,Parc Arboretum du Manoir aux Loups,3.1442 , 50.7624
Q7136390,Parc botanique du Château d'Ouge,5.706 , 47.7967
Q7136391,Parc botanique de Cornouaille,-4.192384 , 47.887622
Q7136394,Parc botanique de la Teyssonnière,5.1426 , 46.2036
Q7136395,Parc botanique de la Tour Vieille,4.079 , 44.1117
Q7136396,Parc botanique du Prieuré d'Orchaise,1.2007 , 47.5887
Q7136398,Parc de l'Étang,5.637778 , 47.429444
Q7136404,Parc et Roseraie du Château de Rambures,1.7075 , 49.94416667
Q7136406,Parc floral et arboré de la Chènevière,3.44527778 , 46.09944444
Q7136485,"Parco Botanico Friulano ""Cormor""",13.19027778 , 46.08361111
Q7136498,Parcours botanique au fil de l'Indre,0.71444444 , 47.28833333
Q7140038,Parsons Arboretum,-95.2663 , 37.3297
Q7156907,Payson Park,-70.2675 , 43.6814
Q7162208,Penang Botanic Gardens,100.28833333 , 5.43995833
Q7169030,Perkins Arboretum,-69.65 , 44.56
Q7178201,Petersen Arboretum,-111.769 , 40.4453
Q7179815,Pflanzengarten Bad Schandau,14.1863 , 50.9019
Q7186407,Phipps Conservatory & Botanical Gardens,-79.9477 , 40.4389
Q7195466,Pinecrest Gardens,-80.285833 , 25.669444
Q7199235,Pittsburgh Botanic Garden,-80.0493 , 40.4196
Q7225800,Polly Hill Arboretum,-70.6805 , 41.3975
Q7240712,Presby Memorial Iris Gardens,-74.2064 , 40.8514
Q7242177,Pretoria National Botanical Garden,28.2733 , -25.7386
Q7257221,Pua Mau Place Arboretum and Botanical Garden,-155.844 , 20.071
Q7260229,Punit Van,72.6669 , 23.2175
Q7260997,Purdue University Horticulture Gardens,-86.915 , 40.4239
Q7268267,Quad City Botanical Center,-90.5642 , 41.5098
Q7269234,Quarryhill Botanical Garden,-122.514 , 38.3747
Q7270732,Queens Botanical Garden,-73.8288 , 40.7504
Q7271100,Queenstown Gardens,168.66 , -45.0377
Q7273447,R. A. Stranahan Arboretum,-83.671389 , 41.693056
Q7276735,"RHS Garden, Hyde Hall",0.574829 , 51.666
Q7290178,Ramser Arboretum,-82.2997 , 40.5362
Q7290313,Ramster,-0.6467 , 51.0916
Q7292958,"Rani Bagh, Hyderabad",68.34305 , 25.38223
Q7307052,Reeves-Reed Arboretum,-74.3481 , 40.7267
Q7307243,Reflection Riding Arboretum and Botanical Garden,-85.2672 , 35.0456
Q7308467,Regina Floral Conservatory,-104.602 , 50.4633
Q7309119,Regional Parks Botanic Garden,-122.244 , 37.8933
Q7310174,Reiman Gardens,-93.6388 , 42.0098
Q7310399,Reinisch Rose Garden and Doran Rock Garden,-95.7307 , 39.0544
Q7313619,Renziehausen Park Rose Garden and Arboretum,-79.8241 , 40.3401
Q7319614,Reynolda Gardens,-80.2842 , 36.1248
Q7321123,Rhododendron Species Foundation and Botanical Garden,-122.314 , 47.3003
Q7337414,River Farm,-77.0446 , 38.7424
Q7338072,Riverbanks Zoo,-81.074389 , 34.01004
Q7338554,Riverside Nature Center,-99.1474 , 30.0508
Q7346641,Robert L. Shepherd Desert Arboretum,-113.641 , 37.1364
Q7355385,Rockingham County Botanical Garden,-71.0506 , 43.0089
Q7356515,Rodef Shalom Biblical Botanical Garden,-79.9439 , 40.4476
Q7359133,Roger Williams Park Botanical Center,-71.4196 , 41.786
Q7359930,Roji-en Japanese Gardens,-80.1474 , 26.4275
Q7360060,Rokkō Alpine Botanical Garden,135.24166667 , 34.7625
Q7368490,Rosemoor Garden,-4.13742 , 50.9408
Q7373834,"Royal Botanic Gardens, Cranbourne",145.282 , -38.129
Q7373835,"Royal Botanic Gardens, Trinidad",-61.5143 , 10.6744
Q7373836,Royal Botanic Gardens,144.98 , -37.8334
Q3162430,Saigon Zoo and Botanical Gardens,106.70472222 , 10.78805556
Q3162431,Jardin botanique pyrénéen de Melles,0.75916667 , 42.86888889
Q3162440,Jardin d'altitude du Haut Chitelet,7.01166667 , 48.05138889
Q3162454,Q3162454,55.2294 , -21.0774
Q3162479,Jardin botanique de l'Evêché,1.267118 , 45.827304
Q3162482,Jardin de l'État,55.451611 , -20.887444
Q3162547,Jardins des Martels,1.78634 , 43.7496
Q3162563,Q3162563,2.29644 , 49.9017
Q3162564,Q3162564,1.89694 , 47.8908
Q3162565,Jardin des Plantes de Lille,3.0682 , 50.6149
Q3162566,Jardin des plantes de Nantes,-1.54277778 , 47.21944444
Q3162568,Jardin des Plantes de Rouen,1.0771 , 49.4221
Q3162571,Jardin des Plantes du Mans,0.210277777 , 48.006388888
Q3162572,"Jardin des Plantes, Toulouse",1.4511 , 43.5929
Q3162606,Jardin botanique d'Èze,7.36111111 , 43.72805556
Q3162650,Royal Botanical Gardens,-79.875833333 , 43.291111111
Q3162657,Jardins de Callunes,7.0146 , 48.3402
Q3162666,Jardins de Valloires,1.8205 , 50.3475
Q3162686,Manor d'Eyrignac,1.315 , 44.94055556
Q3198468,Aarhus Botanical Gardens,10.19083333 , 56.16055556
Q3200597,Morton Arboretum,-88.068811111 , 41.816872222
Q3206389,University of Maryland Arboretum & Botanical Garden,-76.9356 , 38.9863
Q3231880,"Jardin botanique ""Les Cèdres""",7.3262 , 43.6916
Q3241308,Lincoln Park Conservatory,-87.6353 , 41.924
Q3276615,Jardín Botánico de San Fernando,-6.200888888 , 36.473305555
Q3295344,Higashiyama Zoo and Botanical Gardens,136.97777778 , 35.15833333
Q3327712,Cylburn Arboretum,-76.6528 , 39.3525
Q3331450,Tryon Palace,-77.0442 , 35.1056
Q3334165,Ladew Topiary Gardens,-76.5122 , 39.5811
Q3346386,Acharya Jagadish Chandra Bose Indian Botanic Garden,88.286944444 , 22.560555555
Q3348108,National Botanical Garden of Bangladesh,90.0 , 24.0
Q3363773,Parc Arboretum de Saint-Setiers,2.13083333 , 45.6975
Q3363812,Q3363812,55.4338 , -21.3004
Q3363814,Parc Floral de la Source,1.93777778 , 47.8475
Q3363873,Q3363873,-0.526893 , 44.8605
Q3363886,Q3363886,2.29889 , 48.7559
Q3363889,Parc Phœnix,7.20277778 , 43.66694444
Q3363918,Q3363918,0.180995 , 48.0117
Q3364003,Alfred B. Maclay Gardens State Park,-84.2511 , 30.5189
Q3364008,Eden Gardens State Park,-86.1219 , 30.3781
Q3364123,Jardin des Plantes de Poitiers,0.348 , 46.5875
Q3364166,Arboretum de Samara,2.17864 , 49.94639
Q3364222,Q3364222,0.20028 , 48.0008
Q3364279,Parc Jardins du Monde,-1.0125 , 45.63
Q3364335,Q3364335,4.80528 , 45.7461
Q3364353,Parc du Mugel,5.6054 , 43.1648
Q3364653,Parc Oriental de Maulévrier,-0.7502 , 47.0037
Q3364803,Zoo and Botanical Garden of Branféré,-2.39549 , 47.5951
Q3364808,Q3364808,0.20667 , 47.9817
Q3369639,Lankester Botanical Garden,-83.8903 , 9.83889
Q3398986,Botanischer Sondergarten Wandsbek,10.0985 , 53.5824
Q3431727,Hangzhou Botanical Garden,120.123 , 30.2552
Q3442569,Q3442569,135.386 , 34.8118
Q3442578,San Jose Municipal Rose Garden,-121.928 , 37.3322
Q3456566,Jardín Botánico Chagual,-70.6065 , -33.4048
Q3456644,Dominica Botanical Gardens,-61.381908 , 15.301245
Q3456702,"University of California, Riverside Botanic Gardens",-117.32 , 33.9715
Q3456814,Santa Barbara Botanic Garden,-119.709 , 34.4538
Q3456929,Jardín Botánico de Cienfuegos,-80.33333333 , 22.11666667
Q3457218,Q3457218,-47.8364946 , -15.872229
Q3457245,Q3457245,-43.95694444 , -19.81694444
Q3457250,Porto Alegre Botanical Garden,-51.17722222 , -30.05166667
Q3484004,Silver Springs Nature Theme Park,-82.0545 , 29.2181
Q3486457,Skylands,-74.2372 , 41.125
Q3518517,Terra Botanica,-0.57 , 47.5011
Q3533091,Brookside Gardens,-77.035 , 39.0592
Q3614087,American Orchid Society Visitors Center and Botanical Garden,-80.1535 , 26.4288
Q3621362,Arboreti di Vallombrosa,11.555 , 43.73194444
Q3694552,Bagh-e-Jinnah,74.331304 , 31.553727
Q3755226,Botanical Garden of Santa Catalina,-2.8075 , 42.84944444
Q3763875,Giardino Botanico Carsiana,13.7397 , 45.7325
Q3763876,"Giardino Botanico ""Loreto Grande""",13.624342 , 41.86622
Q3763878,Treborth Botanic Garden,-4.1724 , 53.2165
Q3763880,Q3763880,7.48333333 , 44.65
Q3763883,Alpine Botanical Garden of Campo Imperatore,13.558272 , 42.443759
Q3763886,Giardino Botanico Alpino di Pietra Corva,9.33333333 , 44.83333333
Q3763887,Giardino Botanico delle Alpi Orientali,12.3002 , 46.0835
Q3763892,Giardino Botanico Montano di Pratorondanino,8.75082 , 44.52824
Q3763908,Giardino dell'Iris,11.266875 , 43.76281667
Q3763910,Giardino di Flora Appenninica,14.26666667 , 41.83333333
Q3763918,Minerva's Garden,14.75372 , 40.68111
Q3763924,"Giardino delle Erbe ""A. Rinaldi Ceroni""",11.61666667 , 44.21666667
Q3780715,Makino Botanical Garden,133.57777778 , 33.54666667
Q3815348,University of Oulu Botanical Gardens,25.4653 , 65.0631
Q3816996,Jardin exotique de Ponteilla,2.82111111 , 42.62277778
Q3822703,Village arboretum de Vernet-les-Bains,2.38861 , 42.55
Q3886267,"Orto Botanico ""Pietro Castelli"" dell'Università di Messina",15.54615 , 38.19241
Q3886269,Orto Botanico del Monte Baldo,10.86083333 , 45.67361111
Q3886270,Botanic Garden of the University of Salento,18.122661111 , 40.3351
Q3886271,Orto Botanico dell'Università di Sassari,8.54902778 , 40.72171667
Q3886273,Orto Botanico dell'Università di Cagliari,9.11667 , 39.2167
Q3886274,Q3886274,17.0475 , 51.1158
Q3886275,Orto Botanico dell'Università di Catania,15.0835762 , 37.51573944
Q3886279,Orto Botanico di Parma,10.327294444 , 44.795930555
Q3886280,Orto Botanico dell'Università di Siena,11.33168944 , 43.31354722
Q3886281,Orto Botanico dell'Università di Torino,7.68111111 , 45.05666667
Q3886285,Orto Botanico Forestale dell'Abetone,10.66555556 , 44.12611111
Q3886286,Orto dei Semplici Elbano,10.4 , 42.81666667
Q3890919,Camifolia,-0.7336 , 47.2141
Q7374979,"Royal Victoria Park, Bath",-2.3704 , 51.3858
Q7382790,Rutgers Gardens,-74.4226 , 40.4743
Q7397937,Sadie Seymour Botanical Gardens,-155.968 , 19.6138
Q7400442,Sailors' Snug Harbor,-74.102778 , 40.6425
Q7403230,Sakuya Konohana Kan,135.57361111 , 34.71
Q7404826,Salisbury University Arboretum,-75.36 , 38.2
Q7413313,San Antonio Botanical Garden,-98.4571 , 29.4589
Q7413603,San Diego Botanic Garden,-117.281 , 33.0522
Q7414566,San Juan Botanical Garden,-66.0554 , 18.3898
Q7414743,San Luis Obispo Botanical Garden,-120.721 , 35.3408
Q7414901,San Mateo Arboretum,-122.321 , 37.5609
Q7416259,Sandhills Horticultural Gardens,-79.4048 , 35.2235
Q7422667,Sarah P. Duke Gardens,-78.9335 , 36.0018
Q7423241,Sarasota Jungle Gardens,-82.5353 , 27.3372
Q7425054,Sasebo Zoological Park and Botanical Garden,129.689513 , 33.151227
Q7429204,Sayen Park Botanical Garden,-74.6583 , 40.2359
Q7431032,Schedel Arboretum and Gardens,-83.305 , 41.4683
Q7431779,Schmeeckle Reserve,-89.0958 , 44.7103
Q7431989,Schoepfle Garden,-82.34999847 , 41.32833481
Q7443926,Secrest Arboretum,-81.925 , 40.7793
Q7445268,Sedgwick County Extension Arboretum,-97.4217 , 37.7225
Q7446538,Sehome Hill Arboretum,-122.48 , 48.7333
Q7451248,Sentier botanique de Soyaux,0.198611 , 45.6414
Q7455417,Serres de l'Université de Bourgogne,5.0713 , 47.3139
Q7487463,Shambhala Botanic Gardens,-105.579 , 40.8078
Q7488599,Shangri La Botanical Gardens and Nature Center,-93.7592 , 30.1092
Q7492594,Sheffield Botanical Gardens,-1.49813 , 53.372
Q7496970,Shimokamo Tropical Botanical Gardens,138.863 , 34.6493
Q7527037,Sir Harold Hillier Gardens,-1.4666 , 51.0111
Q7531155,Sister Mary Grace Burns Arboretum,-74.2277 , 40.0952
Q7539562,Slayton Arboretum,-84.628 , 41.9351
Q7566002,South Arkansas Arboretum,-92.6846 , 33.2181
Q7566305,Potawatomi Conservatories,-86.217 , 41.666
Q7566560,South Carolina Botanical Garden,-82.8238 , 34.6736
Q7566849,South Coast Botanic Garden,-118.344 , 33.7832
Q7567837,South London Botanical Institute,-0.1047 , 51.4435
Q7568404,South Seattle Community College Arboretum,-122.354 , 47.5514
Q7568633,South Texas Botanical Gardens & Nature Center,-97.407 , 27.6526
Q7569315,Southeast Botanical Gardens,127.8067 , 26.3767
Q7570953,Southport Botanic Gardens,-2.95833 , 53.6625
Q7593903,St Kilda Botanical Gardens,144.984 , -37.8708
Q7599852,Stanley Park,-72.7875 , 42.1236
Q7603023,State Arboretum of Utah,-111.84 , 40.77
Q7603982,Staten Island Botanical Garden,-74.1038 , 40.6421
Q7606757,Stein Eriksen Lodge Botanical Garden,-111.492 , 40.6219
Q7607242,Stellenbosch University Botanical Garden,18.8653 , -33.9361
Q7619314,Stones River Greenway Arboretum,-86.4161 , 35.7864
Q7619506,Stony Brook Millstone Watershed Arboretum,-74.7727 , 40.3525
Q7623187,Streissguth Gardens,-122.321 , 47.6347
Q7636914,Suma Rikyu Park,135.117 , 34.6539
Q7640428,Sunken Gardens,-82.638333 , 27.79
Q7641480,Sunshine Farm and Gardens,-80.4336 , 38.0633
Q7658896,Swiss Pines,-75.5524 , 40.0905
Q7680346,Taltree Arboretum and Gardens,-87.1533 , 41.4489
Q7683047,Tanglewood Park Arboretum and Rose Garden,-80.4066 , 36.0032
Q7710591,Thanksgiving Point,-111.903 , 40.4313
Q7719017,The Bog Garden,-79.8388 , 36.0901
Q7719467,The Botanic Garden of Smith College,-72.6401 , 42.3189
Q7734512,The Florida Botanical Gardens,-82.7875 , 27.9092
Q7740370,The Horticulture Center,-75.2102 , 39.9834
Q7753799,The New York Chinese Scholar's Garden,-74.1044 , 40.6419
Q7757538,The Plum Garden,120.219 , 31.5543
Q7777576,Theatricum Botanicum,-118.593 , 34.1113
Q7796667,Thorp Perrow Arboretum,-1.59855 , 54.2653
Q7800874,Tidewater Arboretum,-76.179928 , 36.89194
Q7813303,Tohono Chul,-110.981 , 32.3397
Q7814010,Tokyo University of Agriculture Botanical Garden,139.346 , 35.4244
Q7814154,Toledo Botanical Garden,-83.6722222 , 41.6680556
Q7827382,Tortworth Court,-2.43862 , 51.6308
Q7829690,Tower Hill Botanic Garden,-71.7267 , 42.3619
Q7845745,Tropical & Subtropical Arboretum,127.881 , 26.6811
Q7845798,Tropical Gardens of Maui,-156.535 , 20.8834
Q7849674,Tsimbazaza Zoo,47.5261 , -18.93
Q7851146,Tucson Botanical Gardens,-110.926 , 32.2217
Q7865354,UNLV Arboretum,-119.817 , 39.5458
Q7882375,Unbelievable Acres Botanic Gardens,-80.1428 , 26.6843
Q7894514,"University Arboretum at California State University, Sacramento",-121.428 , 38.5654
Q7895133,University of Bristol Botanic Garden,-2.6258 , 51.4777
Q7895164,"University of California, Davis Arboretum",-121.754 , 38.5333
Q7895350,University of Dundee Botanic Garden,-3.0213 , 56.4555
Q7895445,University of Georgia Campus Arboretum,-83.372 , 33.951
Q7895517,University of Idaho Arboretum and Botanical Garden,-117.015 , 46.7224
Q7895521,University of Illinois Arboretum,-88.217 , 40.0939
Q7895528,University of Illinois Conservatory and Plant Collection,-88.2225 , 40.1024
Q7895589,University of Kentucky Arboretum,-84.5 , 38.0333
Q7895612,University of KwaZulu-Natal Botanical Garden,30.4039 , -29.625
Q7895895,"University of Nevada, Reno Arboretum",-119.817 , 39.5458
Q7895912,University of New Mexico Arboretum,-106.622 , 35.085
Q7895949,University of North Carolina at Charlotte Botanical Gardens,-80.7285 , 35.308
Q7896210,University of Rhode Island Botanical Gardens and Everett P. Christopher Arboretum,-71.5257232 , 41.489608
Q7896216,University of Rochester Arboretum,-77.628333333 , 43.128333333
Q7902320,Utah Botanical Center,-111.94 , 41.0192
Q7911832,Vallarta Botanical Gardens,-105.293 , 20.4658
Q7912071,Valley Gardens,-0.6044 , 51.4173
Q7913733,Van Vleck House and Gardens,-74.2119 , 40.8222
Q7921716,Vermont Experimental Cold-Hardy Cactus Garden,-73.1361 , 43.9777
Q7930160,Viles Arboretum,-69.764 , 44.3
Q7932464,Vines Botanical Gardens,-83.9223 , 33.8632
Q3892794,Palmetum of Santa Cruz de Tenerife,-16.25583333 , 28.45194444
Q3905190,Bedgebury National Pinetum,0.4556 , 51.0751
Q3920848,Ghent University Botanical Garden,3.72277784 , 51.03527832
Q3936706,Reniala reservation,43.619444 , -23.123056
Q3983829,Rancho Santa Ana Botanic Garden,-117.716 , 34.1117
Q4012424,Q4012424,8.879438888 , 40.350280555
Q4012680,Villa dei Ligustri,13.984333 , 42.432606
Q4055198,Aburi Botanical Gardens,-0.183333333 , 5.866666666
Q4068273,Q4068273,37.635813 , 55.778383
Q4095105,Botanical Garden of Volga State University of Technology,47.959547222 , 56.624194444
Q4095108,Botanical Garden of Turku University,22.171944444 , 60.433333333
Q4095109,Q4095109,35.042 , 48.436
Q4095111,Q4095111,24.003611111 , 49.825833333
Q4095113,Q4095113,24.04944444 , 49.83555556
Q4095114,Q4095114,24.065555555 , 49.830277777
Q4095115,Q4095115,34.331666666 , 61.849166666
Q4095116,Q4095116,35.665627777 , 65.052927777
Q4095117,Q4095117,39.653333333 , 47.236944444
Q4095118,Botanical garden of Saint Petersburg State University,30.296111111 , 59.941944444
Q4095119,Q4095119,37.527222222 , 55.7075
Q4095120,Q4095120,36.233888888 , 50.029444444
Q4095121,Botanical Garden of Tver State University,35.916666666 , 56.869444444
Q4120758,University of Delaware Botanic Gardens,-75.7519 , 39.666
Q4131008,Hawaii Tropical Botanical Garden,-155.095833333 , 19.810555555
Q4144549,Q4144549,85.651944444 , 51.605
Q4158699,Derby Arboretum,-1.47471 , 52.9143
Q4166218,Q4166218,37.880555555 , 48.01
Q4175880,Botanical Garden of the Comenius University,17.10722222 , 48.14833333
Q4240824,Botanical garden in Kryvyi Rih,33.576974 , 48.148787
Q4257680,Lexington Cemetery,-84.509 , 38.061
Q4259805,Southern Nevada Zoological-Botanical Park,-115.19 , 36.1922
Q4275602,Thurston Gardens,178.4247 , -18.1491
Q4348479,Q4348479,45.003127777 , 53.186633333
Q4353880,Visby Botanical Garden,18.294167 , 57.643889
Q4385625,Suigō Sawara Aquatic Botanical Garden,140.518 , 35.9166
Q4388023,Yumenoshima Tropical Greenhouse Dome,139.829 , 35.6513
Q4404906,Moir Gardens,-159.461 , 21.8772
Q4469636,Q4469636,29.305 , 48.619166666
Q4499803,Arboretum Villanova,-75.3433 , 40.037
Q4504376,Central Siberian Botanical Garden,82.916415 , 55.020861
Q4508039,Q4508039,47.254456 , 56.087062
Q4540471,'Ene'io Botanical Garden,-173.9137 , -18.6414
Q4543284,The Arboretum at Penn State,-77.8641 , 40.805
Q4575039,Q4575039,5.270272 , 60.257136
Q4664282,Abbotsbury Subtropical Gardens,-2.6187 , 50.6637
Q4680461,Adams Wildlife Sanctuary,-89.6189 , 39.8031
Q4681683,Adelaide Botanic Garden,138.611 , -34.9181
Q4683242,Adkins Arboretum,-75.9334 , 38.9533
Q4693837,Agri Horticultural Society of India,88.3333 , 22.5282
Q4698736,Airlie Gardens,-77.8279 , 34.2151
Q4700365,Akatsuka Botanical Garden,139.64447222 , 35.78116667
Q4712812,Albuquerque Biological Park,-106.663 , 35.0781
Q4713999,Aldridge Botanical Gardens,-86.7921 , 33.3867
Q4725706,Alice Abel Arboretum,-96.6506 , 40.8389
Q4726558,Aligarh Fort,78.0571125 , 27.9284684
Q4731647,Allen Forest Zoo,80.303643 , 26.502886
Q4734812,Alpengarten Pforzheim,8.7327 , 48.8621
Q4736012,Alta Vista Gardens,-117.219 , 33.2102
Q4736267,Alter Botanischer Garten Tübingen,9.0571 , 48.5234
Q4739454,Amami Islands Botanical Garden,129.410105 , 28.245799
Q4743435,American College Arboretum,-75.3282 , 40.0167
Q4754109,Anderson Japanese Gardens,-89.0581 , 42.2892
Q4759058,Andrews Arboretum,-105.277 , 40.0124
Q4778784,Aoshima Subtropical Botanical Garden,131.469805 , 31.802236
Q4781336,Appleford/Parsons-Banks Arboretum,-75.3258 , 40.0529
Q4784764,Arbor Lodge State Historical Park and Arboretum,-95.881667 , 40.680556
Q4784784,Arboreto Mediterraneo del Limbara,9.17527778 , 40.84972222
Q4784785,Arboreto Pascul,13.22555556 , 46.22388889
Q4784786,Arco Arboretum,10.88333333 , 45.91666667
Q4784790,Arboretum Burgholz,7.18333 , 51.2667
Q4784792,Arboretum Apenninicum,13.06383056 , 43.13181944
Q4784793,Arboretum Curie,3.589722222 , 44.730555555
Q4784796,Arboretum Freiburg-Günterstal,7.842693 , 47.972801
Q4784797,Arboretum Habichtsborn,9.66166667 , 51.34361111
Q4784799,Arboretum Park,-116.35 , 43.6956
Q4784800,Arboretum Lehmkuhlen,10.3606 , 54.2263
Q4784801,Arboretum Paul Barge,3.6516 , 46.0321
Q4784805,Arboretum at Penn State Behrend,-79.9824 , 42.1211
Q4784806,"Arboretum at the University of California, Santa Cruz",-122.061 , 36.9827
Q4784807,Arboretum at Arizona State University,-111.93 , 33.4258
Q4784808,Arboretum d'Olhain,2.585833333 , 50.452777777
Q4784810,Arboretum d'Élan,4.75444444 , 49.65611111
Q4784811,Arboretum d'Arpajon-sur-Cère,2.4575 , 44.9047
Q4784813,Arboretum de Calmels,2.695011111 , 43.709011111
Q4784815,Arboretum de Bains-les-Bains,6.233 , 47.999
Q4784816,Arboretum de Camors,-2.999722222 , 47.848611111
Q4784817,Arboretum de Cardeilhac,0.684444444 , 43.298333333
Q4784819,Arboretum de Chamberet,1.7206 , 45.5842
Q4784820,Arboretum de Charvols,3.7331 , 45.3383
Q4784822,Arboretum de Combe Noire,5.783333333 , 44.966666666
Q4784823,Arboretum de Contrexéville,5.896388888 , 48.185277777
Q4784824,Arboretum de Craonne,3.786661111 , 49.443061111
Q4784825,Arboretum de Font-Romeu,2.049873 , 42.516619
Q4784826,Arboretum de Fontenoy-le-Château,6.21944444 , 47.99166667
Q4784828,Arboretum de Fresse-sur-Moselle,6.788055555 , 47.876666666
Q4784830,Arboretum de Guignicourt-sur-Vence,4.652777777 , 49.682222222
Q4784832,Arboretum de Jouéou,0.594722 , 42.7917
Q4784836,Arboretum de Neuville-de-Poitou,0.245453 , 46.680846
Q7934482,Virginia Robinson Gardens,-118.416667 , 34.086389
Q7941038,Volunteer Park Conservatory,-122.315 , 47.632
Q7945596,W. Gordon Belser Arboretum,-80.9847 , 33.9931
Q7945707,W. J. Beal Botanical Garden,-84.4846 , 42.7314
Q7959533,Wagga Wagga Botanic Gardens,147.366 , -35.1309
Q7959606,Wagner Farm Arboretum,-74.5058 , 40.6505
Q7960871,Wakayama Prefecture Botanical Park,135.327 , 34.2858
Q7961105,Wakehurst Place,-0.08894 , 51.0672
Q7966148,Walter Sisulu National Botanical Garden,27.84 , -26.087
Q7968923,Ward-Meade Park Botanical Gardens,-95.6819 , 39.0631
Q7971999,Washington Irving Memorial Park and Arboretum,-95.8783 , 35.9608
Q7972107,Washington Park Arboretum,-122.296 , 47.637
Q7975512,Wavertree Botanic Gardens,-2.94159 , 53.4058
Q7981039,Welkinweir,-75.681944 , 40.153611
Q7981239,Wellesley College Botanic Gardens,-71.304 , 42.295
Q7987735,Western Colorado Botanical Gardens,-108.561 , 39.0552
Q7992239,Wheeler Orchid Collection and Species Bank,-85.4159 , 40.1996
Q7995285,White River Gardens,-86.1761 , 39.7667
Q8000170,Wilbur D. May Center,-119.825 , 39.5462
Q8000328,Wilcox Park,-71.8272 , 41.3775
Q8001101,Wilder Park Conservatory,-87.944 , 41.8948
Q8001583,Wildwood Park for the Arts,-92.3222 , 34.7361
Q8005159,William Bartram Arboretum,-86.25 , 32.51
Q8008773,William F. Curtis Arboretum,-75.5151 , 40.5869
Q8013779,William Joseph McInnes Botanic Garden and Campus Arboretum,-122.18 , 37.7807
Q8014317,William Lanier Hunt Arboretum,-79.0325 , 35.8998
Q8021157,Williamsburg Botanical Garden,-76.7991 , 37.3196
Q8022455,Willowwood Arboretum,-74.6991 , 40.726
Q8023946,Wind River Arboretum,-121.934 , 45.7992
Q8025508,Winkworth Arboretum,-0.5818 , 51.1607
Q8028642,Wittunga Botanic Garden,138.61 , -35.0235
Q8030366,Wollongong Botanic Garden,150.878 , -34.41
Q8030785,Wombat Hill Botanic Gardens,144.151 , -37.3431
Q8032819,Woodland Cemetery and Arboretum,-84.179167 , 39.742778
Q8033579,Woodward Park,-95.9738 , 36.1316
Q8035422,World Botanical Gardens,-155.136641 , 19.903807
Q8038234,Wright Park Arboretum,-122.448 , 47.2603
Q8038333,Wrigley Botanical Gardens,-118.341 , 33.3289
Q8044781,Xishuangbanna Tropical Botanical Garden,101.25 , 21.9167
Q8047084,Yakima Area Arboretum,-120.473 , 46.5869
Q8048094,Yampa River Botanic Park,-106.829 , 40.4697
Q8054635,Yokohama Municipal Children's Botanical Garden,139.577 , 35.4333
Q8071897,Zilker Botanical Garden,-97.7714 , 30.2689
Q8078344,Épanchoir de Foucaud,2.32 , 43.2276
Q8203213,Mount Pisgah Arboretum,-122.981 , 44.0083
Q8203264,United States National Arboretum,-76.967539 , 38.910233
Q8251228,"Botanica, The Wichita Gardens",-97.3638 , 37.6961
Q8343597,Q8343597,134.859306 , 34.90775
Q8561722,Donald E. Davis Arboretum,-85.4828 , 32.5956
Q8563621,Flamingo Gardens,-80.3129 , 26.0737
Q9002880,Hendricks Park,-123.058 , 44.035
Q9003738,Highstead Arboretum,-73.3878 , 41.3251
Q9005444,Huntington Desert Garden,-118.11 , 34.1272
Q9010892,"Giardino Alpino ""Antonio Segni""",12.05 , 46.38333333
Q9010895,Q9010895,-8.36281 , 43.316
Q9010897,Q9010897,-97.15 , 19.483333
Q9010898,Jardín Botánico Histórico de Barcelona,2.15273 , 41.367207
Q9010902,Lewis Ginter Botanical Garden,-77.4711 , 37.6212
Q9010907,Q9010907,-99.0342 , 19.3731
Q9010908,Meadowlark Botanical Gardens,-77.281 , 38.9378
Q9010911,Ness Botanic Gardens,-3.043 , 53.2724
Q9010914,Olbrich Botanical Gardens,-89.335 , 43.0925
Q9010917,Q9010917,-2.991667 , 43.297222
Q9010925,Q9010925,2.73216111 , 39.75576944
Q9010928,Jardin botanique de Talence,-0.5905 , 44.8099
Q9010931,Q9010931,2.480303 , 42.171821
Q9010943,Q9010943,16.882 , 52.4199
Q9010947,Seinan Gakuin University Biblical Botanical Garden,130.4 , 33.58333333
Q9010949,Botanischer Garten der Universität Karlsruhe,8.4191 , 49.0129
Q9010957,Q9010957,34.80875 , 32.11375
Q9010962,Jardin botanique des Pyrénées occidentales,-0.248 , 43.358
Q9010963,Q9010963,-89.25 , 13.672222
Q9010970,Botanical Garden and Zoo of Asunción,-57.57307983 , -25.24877183
Q9010973,"Giardino Montano per la Conservazione della Biodiversità ""Ruggero Tomaselli""",12.47222222 , 41.89555556
Q9010977,Sawtooth Botanical Garden,-114.35 , 43.6289
Q9010982,Q9010982,-75.69013889 , 4.79116667
Q9010985,Western Kentucky Botanical Garden,-87.1175 , 37.7572
Q9010986,Jardín Botánico de la Universidad de Valencia,-0.386689 , 39.477
Q9010989,Q9010989,140.874 , 38.2391
Q9011001,Itabashi Botanical Garden,139.66408333 , 35.79188889
Q9017951,Q9017951,22.704167 , 63.675
Q9034856,Montgomery Botanical Center,-80.2816 , 25.6612
Q9054473,Q9054473,-3.69996944 , 40.39371389
Q9055770,Q9055770,136.983 , 34.8644
Q9055783,Q9055783,136.983056 , 34.864444
Q9055804,Hamamatsu Flower Park,137.6375 , 34.758333
Q9055827,Manito Park and Botanical Gardens,-117.412 , 47.6357
Q9096880,Yamashina Botanical Research Institute,135.819 , 34.9719
Q10305536,Independence Park Botanic Gardens,-91.1059 , 30.4446
Q10305541,Santos Botanical Garden,-46.372861111 , -23.938083333
Q10305542,Q10305542,-28.65 , 38.55
Q10305543,Jardim Botânico do Porto,-8.6426 , 41.1536
Q10314485,World Horti-Expo Garden,102.759377777 , 25.071566666
Q10749928,Samuel Cocking Garden,139.47833333 , 35.29972222
Q10752072,Botanical Garden-Institute of the Far Eastern Branch of the Russian Academy of Sciences,131.993611111 , 43.223888888
Q10874028,Lushan Botanical Garden,115.983 , 29.5833
Q10874031,Wuhan Botanical Garden,114.412 , 30.5444
Q10914190,Taipei Botanical Garden,121.51 , 25.0323
Q10924128,Chiayi Botanical Garden,120.46838889 , 23.48333333
Q4784838,Arboretum de Podestat,0.483055555 , 44.851944444
Q4784839,Arboretum de Pézanin,4.48055556 , 46.34805556
Q4784840,Arboretum de Royat,3.024 , 45.755
Q4784842,Arboretum de Saint Guillem,2.47972 , 42.4047
Q4784843,Arboretum de Segrez,2.177222222 , 48.546111111
Q4784847,Arboretum de Tournay,0.246388888 , 43.185
Q4784848,Arboretum de Varennes-en-Argonne,5.0312 , 49.2262
Q4784849,Arboretum de Vendresse,4.8 , 49.61666667
Q4784850,Arboretum de Xertigny,6.4039 , 48.0438
Q4784854,Arboretum de l'Étoile des Andaines,-0.5494 , 48.61
Q4784856,Arboretum de la Forêt d'Épinal,6.45 , 48.183333333
Q4784857,Arboretum de la Grand Prée,-0.198333333 , 48.007777777
Q4784858,Arboretum de la Jonchère,1.468611111 , 46.0
Q4784860,Arboretum de la Pipe Qui Fume,4.754444444 , 49.656111111
Q4784862,Arboretum de la Sédelle,1.620277777 , 46.395833333
Q4784863,Arboretum de la Tuillère,1.3213363 , 45.2753966
Q4784864,Arboretum des Grandes Bruyères,2.757222222 , 47.836111111
Q4784866,Arboretum des Milelli,8.7383 , 41.9179
Q4784868,Arboretum des Prés des Culands,1.694166666 , 47.823333333
Q4784870,Arboretum du Chemin de la Découverte,-0.1439 , 46.2228
Q4784871,Arboretum du Col du Las,7.0525 , 48.337222222
Q4784875,Arboretum du Font de l'Orme,5.063888888 , 43.801666666
Q4784880,Arboretum du Mas du Rouquet,3.323611111 , 43.803611111
Q4784881,Arboretum du Massif des Agriers,2.3574 , 45.6864
Q4784882,Arboretum du Petit-Bois,5.141666666 , 49.2725
Q4784884,Arboretum du Planel,2.372780555 , 42.953055555
Q4784886,Arboretum du Puy du Fou,-0.931944444 , 46.893333333
Q4784894,Arboretum du parc de Rouelles,0.17861111 , 49.52777778
Q4784895,Arboretum et parc de la Rigolée,3.3137 , 46.5816
Q4784897,Arboretum of the Barnes Foundation,-75.2419 , 39.9981
Q4784900,Arboretum of the University of Central Florida,-81.193 , 28.6038
Q4790352,Arie den Boer Arboretum,-93.646 , 41.573
Q4791118,Aritaki Arboretum,139.79006667 , 35.898525
Q4791256,Arizona Cactus Botanical Garden,-109.8754 , 31.3508
Q4791262,Arizona Cactus Garden,-122.171 , 37.4359
Q4791739,Arkansas Arboretum,-92.48 , 34.836
Q4792056,Arktisch-Alpiner Pflanzengarten und Alpine Staudengärtnerei,12.91666667 , 51.16666667
Q4796651,ArtGardens of Pittsburgh,-79.9769 , 40.4512
Q4812638,Atagawa Tropical & Alligator Garden,139.067895 , 34.816602
Q4818944,University of South Florida Botanical Gardens,-82.4131 , 28.0544
Q4819256,Auburn Botanical Gardens,151.017 , -33.8588
Q4819495,Auckland Botanic Gardens,174.908 , -37.013
Q4820892,Augusta Botanical Gardens,-81.975 , 33.47
Q4823826,Australian Arid Lands Botanic Garden,137.743 , -32.4616
Q4824296,Australian Inland Botanic Gardens,142.139 , -34.136
Q4829988,Awbury Arboretum,-75.1689 , 40.0517
Q4848332,Bailey Arboretum,-73.583611111 , 40.886666666
Q4850208,Balboa Park Gardens,-117.145 , 32.7314
Q4851467,Ballarat Botanical Gardens,143.822 , -37.5467
Q4865386,Bartlett Arboretum,-97.285556 , 37.391944
Q4865387,Bartlett Arboretum and Gardens,-73.547 , 41.1335
Q4867821,Bason Botanic Gardens,175.048 , -39.9303
Q4869639,Batsford Arboretum,-1.72917 , 52.0028
Q4877545,Beaumont Botanical Gardens,-94.1465 , 30.0233
Q4883646,Belle Isle Conservatory,-82.9794 , 42.3422
Q4883720,Belle Vue Zoological Gardens,-2.1875 , 53.4636
Q4883922,Bellevue Botanical Garden,-122.179 , 47.6092
Q4884044,Bellingrath Gardens and Home,-88.139444 , 30.431389
Q4886835,Benalla Botanical Gardens,145.978 , -36.5533
Q4889783,Bennetts Water Gardens,-2.4962 , 50.6171
Q4892246,Berkshire Botanical Garden,-73.3364 , 42.3004
Q4894262,Bernheim Arboretum and Research Forest,-85.391 , 37.5547
Q4895276,Liliuokalani Botanical Garden,-157.85 , 21.3167
Q4895577,Berthold Public School Arboretum,-101.731 , 48.3189
Q4898817,Betty Ford Alpine Gardens,-106.366 , 39.6397
Q4903645,Bickelhaupt Arboretum,-90.2194 , 41.8408
Q4904330,Biedenharn Museum and Gardens,-92.1312 , 32.5197
Q4916622,Birmingham Botanical Gardens,-86.7745 , 33.4917
Q4924392,Blake Garden,-122.285 , 37.9135
Q4926930,"Blithewold Mansion, Gardens and Arboretum",-71.266047 , 41.654089
Q4927320,Bloedel Floral Conservatory,-123.114 , 49.2421
Q4929903,Blue Springs Heritage Center,-93.813 , 36.4665
Q4937253,Boettcher Memorial Tropical Conservatory,-104.961 , 39.7325
Q4944451,Borde Hill Garden,-0.1129 , 51.022
Q4948416,"Botanic Garden, Faculty of Science, Kanazawa University",136.70188889 , 36.54036111
Q4948422,Botanic Gardens St. Vincent,-61.233333333 , 13.166666666
Q4948424,Botanic Gardens of Toyama,137.18333333 , 36.66666667
Q4948440,Botanical Garden of Tohoku University,140.0 , 38.2333
Q4948441,Botanical Garden of the Ozarks,-94.1183 , 36.1367
Q4948445,Botanical Garden of Vilnius University,25.40277778 , 54.73583333
Q4948448,Botanical Gardens at Asheville,-82.567 , 35.613
Q4948449,Botanical Gardens Faculty of Science Osaka City University,135.68166667 , 34.76361111
Q4948464,Botanischer Garten Aachen,6.07792 , 50.7777
Q4948465,Botanischer Erlebnisgarten Altenburg,12.4311 , 50.9904
Q4948466,Botanischer Garten Adorf,12.246 , 50.3062
Q4948467,Botanischer Garten Duisburg-Hamborn,6.7665 , 51.4869
Q4948468,Botanischer Garten Kaiserberg,6.7972 , 51.4359
Q4948469,Botanischer Garten Kassel,9.47 , 51.2989
Q4948470,Botanischer Garten Oldenburg,8.18222222 , 53.14777778
Q4948472,Botanischer Garten Solingen,7.0647 , 51.1845
Q4948473,Botanischer Garten der Christian-Albrechts-Universität zu Kiel,10.1225 , 54.33888889
Q4948474,Botanischer Garten der Nationalpark Bayerischer Wald,13.486 , 48.8898
Q4948475,Botanischer Garten der Stadt Hof,11.93694444 , 50.32444444
Q4948477,Botanischer Garten der Stadt Neuss,6.69216 , 51.1896
Q4948478,Botanischer Garten der Stadt Wilhelmshaven,8.108888888 , 53.541666666
Q4948481,Botanical Garden of the University of Konstanz,9.1788 , 47.6921
Q4948482,Botanischer Garten der Universität Hohenheim,9.2146 , 48.7082
Q4948484,Botanischer Garten der Universität Regensburg,12.0915 , 48.9932
Q4948485,Botanischer Garten der Universität Tübingen,9.0359 , 48.5395
Q4948488,Botanischer Garten der Universität Würzburg,9.9313 , 49.7653
Q4948490,Botanischer Garten für Arznei- und Gewürzpflanzen Oberholz,12.4707 , 51.25719983
Q4948492,Botanischer Garten in Bad Langensalza,10.5778 , 51.1051
Q4951275,Bowman's Hill Wildflower Preserve,-74.9406 , 40.3301
Q4957297,Brandywine Wildflower and Native Plant Gardens,-75.5931 , 39.8699
Q4961701,Brenton Arboretum,-93.99 , 41.66
Q4967317,Brigham Young University Arboretum,-111.652 , 40.2447
Q4980293,Bryan Park,-77.4739 , 37.5936
Q4980894,Bryn Mawr Campus Arboretum,-75.3129 , 40.0263
Q4985906,Buffalo and Erie County Botanical Gardens,-78.8258 , 42.8281
Q5000425,Burrendong Botanic Garden and Arboretum,149.12 , -32.7079
Q5001352,Bush's Pasture Park,-123.038 , 44.9317
Q5003274,Buxton Park Arboretum,-93.5637 , 41.3668
Q5016165,Cactus Park,3.4195 , 43.3489
Q5016195,Cactuseraie d'Escaïre-Figue,2.2237 , 43.2966
Q5021110,California State University Northridge Botanic Garden,-118.527 , 34.2389
Q5021796,Callaway Gardens,-84.8515 , 32.8448
Q5028700,Campus of Elon University,-79.501 , 36.103
Q5032531,Cann Memorial Botanical Gardens,-97.0653 , 36.7028
Q5040751,"Carl S. English, Jr., Botanical Gardens",-122.398 , 47.6668
Q5048300,Case Estates,-71.2991 , 42.358
Q5055941,Cecil B. Day Butterfly Center,-84.854 , 32.8317
Q5056934,Cedar Valley Arboretum & Botanic Gardens,-92.325 , 42.4307
Q5059121,Centennial Arboretum,-75.2104 , 39.983
Q5059135,Centennial Conservatory,-89.2604 , 48.3909
Q5059184,Centennial Museum and Chihuahuan Desert Gardens,-106.505821 , 31.769275
Q5059198,Centennial Park Conservatory,-79.5883 , 43.6494
Q5072666,Chanticleer Garden,-75.386556 , 40.0305
Q5073277,Chapman Field,-80.2951 , 25.6417
Q5087704,Chatham University Arboretum,-79.9234 , 40.4476
Q5092826,Chesapeake Arboretum,-76.2367 , 36.7437
Q5093642,Chester M. Alter Arboretum,-104.962 , 39.6764
Q5094572,Cheyenne Botanic Gardens,-104.831 , 41.159
Q5097312,Chihuahuan Desert Nature Center and Botanical Gardens,-103.8373 , 30.5404
Q5113693,Christy Woods,-85.4159 , 40.1996
Q5124375,"Civico Orto Botanico ""Ulisse Aldrovandi""",11.1833 , 44.6333
Q5124376,Civico Orto Botanico di Trieste,13.8 , 45.63333333
Q5127155,Clark Botanic Garden,-73.6398 , 40.7722
Q5132073,Cleveland Botanical Garden,-81.609455555 , 41.510847222
Q5138303,Coastal Maine Botanical Gardens,-69.6617 , 43.875
Q5141722,Coker Arboretum,-79.049 , 35.9137
Q5141866,Colac Botanic Gardens,143.591 , -38.3329
Q5148353,Colonial Park Arboretum and Gardens,-74.5741 , 40.509
Q5153206,Royal National Rose Society Gardens,-0.371943 , 51.7272
Q5155139,Como Park Zoo and Conservatory,-93.1508 , 44.9814
Q5158903,Makino Memorial Garden,139.58555556 , 35.74638889
Q5159485,Conejo Valley Botanical Garden,-118.887 , 34.192
Q5161496,Connecticut College Arboretum,-72.11 , 41.38
Q5162921,Conservation Garden Park,-111.927 , 40.6014
Q5163119,Conservatoire botanique Pyrénéen,0.1464 , 43.0517
Q5163120,Conservatoire botanique national alpin de Gap-Charance,6.0513 , 44.5763
Q5163125,Conservatoire national du Pélargonium,2.361 , 47.0719
Q5163145,Conservatory of Flowers,-122.46 , 37.772
Q5169399,Cora Hartshorn Arboretum and Bird Sanctuary,-74.328 , 40.725
Q5181890,Cranberry Glades,-80.2664 , 38.2031
Q5182290,Crapo Park,-91.101944 , 40.775833
Q5188024,Crosby Arboretum,-89.6662 , 30.5036
Q5189729,Crozer Arboretum,-75.3687 , 39.8571
Q5189930,Cruickshank Botanic Garden,-2.10472 , 57.1678
Q5196873,Cutler Botanic Garden,-75.9117 , 42.1022
Q5200329,Cypress Gardens,-79.9558 , 33.0564
Q5203463,"D. A. ""Andy"" Anderson Arboretum",-96.3061 , 30.6024
Q5203477,D. A. Murphy Panhandle Arboretum,-103.68 , 41.8931
Q5211266,Dallas Arboretum and Botanical Garden,-96.717322 , 32.823097
Q5214910,Japanese House and Garden,-75.213 , 39.9814
Q5216623,Daniel Boone Native Gardens,-81.6708 , 36.2087
Q5218854,Daniel Stowe Botanical Garden,-81.0578 , 35.168
Q5241640,Davidson College Arboretum,-80.8462 , 35.5002
Q5250897,Deerfield Beach Arboretum,-80.1414 , 26.3188
Q5250991,Deerwood Arboretum and Nature Area,-86.83972 , 36.03594
Q5253243,Delaware Center for Horticulture,-75.5613 , 39.7587
Q5256610,Denbigh Experimental Forest,-100.637 , 48.2906
Q5263507,Des Moines Botanical Center,-93.6138 , 41.5969
Q5263676,Descanso Gardens,-118.2125 , 34.200277777
Q5263937,Desert Garden Conservatory,-118.11 , 34.1272
Q5267813,Devonian Botanic Garden,-113.757 , 53.4081
Q5267815,Devonian Gardens,-114.072 , 51.0461
Q5286496,Doane College Osterhout Arboretum,-96.9494 , 40.6214
Q5291030,Dominion Arboretum,-75.7035 , 45.3868
Q5302612,Dow Gardens,-84.2496 , 43.6234
Q5304337,Dr. Rafael Ma. Moscoso National Botanical Garden,-69.9586 , 18.4906
Q5311168,Dubuque Arboretum and Botanical Gardens,-90.7177 , 42.5323
Q5312784,Duke Gardens,-74.6187 , 40.5506
Q5314964,Dunedin Botanic Gardens,170.521 , -45.8577
Q5315426,Dunlawton Plantation and Sugar Mill,-81.006111 , 29.140833
Q5315692,Dunsmuir Botanical Gardens,-122.16 , 41.14
Q5316059,Dupree Gardens,-82.448852 , 28.240754
Q5316277,Durban Botanic Gardens,31.0067 , -29.8467
Q5316580,Durham University Botanic Garden,-1.57528 , 54.7606
Q5318478,Dyck Arboretum of the Plains,-97.434 , 38.1294
Q5325962,Earl L. Core Arboretum,-79.9775 , 39.6456
Q5333888,Ecotat Gardens and Arboretum,-68.9264 , 44.8097
Q5338443,Edison and Ford Winter Estates,-81.88 , 26.634722
Q5338579,Edith J. Carrier Arboretum,-78.8609 , 38.4298
Q5359319,Hattori Ryokuchi Arboretum,135.49111111 , 34.77027778
Q5361885,Elitch Gardens,-105.046 , 39.7683
Q5364342,Tennōji Park,135.511 , 34.6498
Q5366186,Ellwanger Garden,-77.6151 , 43.1377
Q5375398,"Enchanting Floral Gardens of Kula, Maui",-156.327 , 20.7922
Q5388359,Erie Zoo,-80.0755 , 42.0968
Q5506031,Frontier Organic Research Farm Botanical Garden,-91.905 , 41.891
Q5506389,Fruit and Spice Park,-80.4942 , 25.5356
Q5507342,Fuji Bamboo Garden,138.88805556 , 35.16111111
Q5507695,Fukuoka Municipal Zoo and Botanical Garden,130.390424 , 33.572261
Q5508289,Fullerton Arboretum,-117.883 , 33.8872
Q5509590,Furman University Japanese Garden,-82.4367 , 34.9286
Q5510444,Futagami Manyo Botanical Gardens,137.02069444 , 36.79125
Q5522300,Garden Route Botanical Garden,22.46333333 , -33.94722222
Q5522493,Gardens of the Fox Cities,-88.3851 , 44.2906
Q5523093,Garfield Park,-86.142 , 39.7321
Q5523798,Garrard Ardeneum,-95.7664 , 34.9331
Q5524513,Garvan Woodland Gardens,-93.0456 , 34.4347
Q5529837,Geelong Botanic Gardens,144.3781 , -38.15
Q5530790,Gen. Charles S. Farnsworth County Park,-118.131111 , 34.200556
Q5537331,George Brown Darwin Botanic Gardens,130.836 , -12.445
Q5541469,George L. Luthy Memorial Botanical Garden,-89.5751 , 40.7176
Q5541520,George Landis Arboretum,-74.2703 , 42.7847
Q5546931,Georgeson Botanical Garden,-147.859 , 64.8561
Q5547658,Georgia Perimeter College Botanical Garden,-84.27435 , 33.68692
Q5547722,Georgia Southern Botanical Garden,-81.7741 , 32.4209
Q5551958,Living Desert Zoo and Gardens,-116.37 , 33.6958
Q5554951,Gewächshaus für tropische Nutzpflanzen,9.8605 , 51.3445
Q5555522,Naples Botanical Garden,-81.7986 , 26.1531
Q5558577,Giardini Ravino,13.9 , 40.71666667
Q5558578,Giardini Botanici dell'Isola Madre,8.53777778 , 45.91111111
Q5558582,"Giardino Botanico, Istituto Tecnico Agrario Statale ""Celso Ulpiani""",13.58333333 , 42.85
Q5558585,"Giardino Botanico ""Nuova Gussonea""",14.93333333 , 37.63333333
Q5558588,"Giardino Botanico Alpino ""Giangio Lorenzoni""",12.36055556 , 46.13722222
Q5558592,"Giardino Botanico Alpino ""Rezia""",10.36666667 , 46.46666667
Q5558594,Giardino Botanico Alpino San Marco,11.187247 , 45.756187
Q5558597,Giardino Botanico Alpino Valderia,7.20333333 , 44.27083333
Q5558600,Giardino Botanico Alpino alle Viotte di Monte Bondone,11.03083333 , 45.98805556
Q5558603,Giardino Botanico Daniela Brescia,14.026737 , 42.120429
Q5558605,Giardino Botanico Mediterraneo,14.752938 , 42.078122
Q5558607,Giardino Botanico Gole del Sagittario,13.804163888 , 41.992293888
Q5558608,Giardino Botanico Litoraneo di Porto Caleri,12.23333333 , 45.06666667
Q5558612,Giardino Botanico Ponziano,12.96666667 , 40.9
Q5558613,Giardino Botanico Rea,7.41666667 , 45.03333333
Q5558614,Giardino Botanico Trebbo Trebbi,10.23333333 , 45.53333333
Q5558615,Giardino Botanico Tropicale dell'Istituto Agronomico per l'Oltremare,11.25694444 , 43.76861111
Q5558616,Giardino Botanico del Museo Civico di Scienze Naturali di Faenza,11.88333333 , 44.28333333
Q5558620,"Giardino Botanico della Scuola Media Statale ""E.Toti"" di Musile di Piave",12.56666667 , 45.61666667
Q5558621,Giardino Botanico e Arboreto Appenninico del Parco Nazionale d'Abruzzo,13.786861 , 41.806064
Q5558624,Giardino Botanico di Collepardo,13.36666667 , 41.76666667
Q5558625,Giardino Botanico di Oropa,7.97888889 , 45.62833333
Q5558628,"Giardino Fenologico ""Alessandro Marcello""",12.25 , 45.66666667
Q5558630,Giardino Montano Linasia,8.53333333 , 39.31666667
Q5558631,Giardino Montano dell' Orecchiella,10.37944444 , 44.18388889
Q5558633,"Giardino dei Semplici, Bagnacavallo",11.98333333 , 44.41666667
Q5559047,Parc botanique de Suscinio,-3.82666667 , 48.57833333
Q5560477,Powell Gardens,-94.041 , 38.8714
Q5562476,Gilman Park Arboretum,-97.5189 , 42.2006
Q5564873,Gisborne Botanical Gardens,178.021 , -38.6569
Q5576152,Niigata Prefectural Botanical Garden,139.11216667 , 37.76136111
Q5578654,Gold Coast Regional Botanic Gardens,153.385 , -28.0083
Q5583496,Goodnestone Park,1.22694 , 51.2436
Q5589082,"Government Rose Garden, Ooty",76.708606 , 11.406108
Q5589544,Governor Furnas Arboretum,-95.6617 , 40.3969
Q5602279,Green Animals Topiary Garden,-71.2746 , 41.6
Q5603225,Green Spring Gardens Park,-77.15 , 38.8167
Q5604440,Greensboro Arboretum,-79.8413 , 36.0701
Q5607276,Greifswald Botanic Garden and Arboretum,13.36694444 , 54.09361111
Q5620069,Winterbourne Botanic Garden,-1.92484 , 52.4537
Q5638108,Hadwen Arboretum,-71.8326 , 42.2577
Q5638880,Hahn Horticulture Garden,-80.4243 , 37.2194
Q5640444,Hakgala Botanical Garden,80.7667 , 6.91667
Q5640598,Hakone Botanical Garden of Wetlands,139.00707778 , 35.266175
Q5644261,Hambrick Botanical Gardens,-97.4831 , 35.5356
Q5644961,Hamilton Gardens,175.304 , -37.8046
Q5647261,Handayama Botanical Garden,133.93094444 , 34.69297222
Q5652238,Mounts Botanical Garden,-80.1135 , 26.6853
Q5655000,Harcourt Arboretum,-1.1986 , 51.6823
Q5658220,Harkness Memorial State Park,-72.113056 , 41.304722
Q5660965,Jardin des Arômes,5.1343 , 44.3555
Q5662054,Harold Porter National Botanical Garden,18.92694444 , -34.35166667
Q5664914,Harris Garden,-0.94113 , 51.4359
Q5671434,Harry P. Leu Gardens,-81.357322 , 28.567383
Q5678574,Jardin Exotique de Roscoff,-3.9703 , 48.7161
Q5679170,"RHS Garden, Wisley",-0.4742 , 51.313
Q5681074,Hatcher Garden and Woodland Preserve,-81.9575 , 34.9314
Q5683743,Haverford College Arboretum,-75.299 , 40.0116
Q5686571,Hayes Arboretum,-84.8438 , 39.8371
Q5687806,Jardin botanique de la Perrine,-0.7695 , 48.0661
Q5690719,Q5690719,-8.533333 , 42.883333
Q5693628,Heathcote Botanical Gardens,-80.324 , 27.418277777
Q5695205,Jardin botanique Yves Rocher de La Gacilly,-2.13111111 , 47.76555556
Q5696656,The Gardens at the Las Vegas Springs Preserve,-115.189 , 36.1686
Q5699399,Heil- und Giftpflanzengarten der Tierärztlichen Hochschule Hannover,9.8085 , 52.3539
Q5702471,Palm and Cycad Arboretum,-81.5099 , 30.2915
Q5702499,Alnarp Park Arboretum,13.07777778 , 55.65444444
Q5728107,Henry Schmieder Arboretum,-75.1587 , 40.2988
Q5733324,"Herbarium and Botanical Garden, Shah Abdul Latif University",69.24111111 , 24.87694444
Q5736258,Herbularium du Morvan,4.099 , 47.2753
Q5738956,Heritage Museums and Gardens,-70.5055 , 41.7477
Q5743575,Heronswood,-122.549 , 47.8208
Q5744224,Herrontown Woods Arboretum,-74.6469 , 40.382
Q5751878,Hidden Lake Gardens,-84.1066 , 42.0308
Q5758940,"Highland Park, Rochester, New York",-77.6064 , 43.1297
Q5759514,Highline Botanical Garden,-122.303 , 47.48
Q5391541,Norfolk Botanical Garden,-76.2061 , 36.9028
Q5393922,Q5393922,25.732667 , 62.23625
Q5394216,Q5394216,-9.200635 , 38.70625
Q5395347,McCrory Gardens and South Dakota Arboretum,-96.7699 , 44.3129
Q5395528,Forstbotanischer Garten und Pflanzengeographisches Arboretum der Universität Göttingen,9.9623 , 51.5578
Q5397998,Staatliche Baderverwaltung Badenweiler,7.6681 , 47.8029
Q5398689,Espace Pierres Folles,4.6758 , 45.8795
Q5398695,Espace botanique du Frasnois,5.8814 , 46.619
Q5403157,Ethel M Botanical Cactus Garden,-115.071 , 36.074
Q5404697,Jardin de Planbuisson,0.910278 , 44.8461
Q5421146,Experimental Station for Landscape Plants,140.074739 , 35.662387
Q5438314,Faustino Miranda Botanical Garden,-93.107 , 16.758
Q5438922,Fay Hyland Botanical Plantation,-68.6747 , 44.8958
Q5442495,Fellows Riverside Gardens,-80.675 , 41.0992
Q5445158,Fernwood Botanical Garden and Nature Preserve,-86.3466 , 41.8653
Q5452183,Firs Botanical Grounds,-2.213888888 , 53.444166666
Q5458809,Fletcher Moss Botanical Garden,-2.23028 , 53.4094
Q5464017,Foellinger-Freimann Botanical Conservatory,-85.1394 , 41.0756
Q5469066,Forest Park Museum and Arboretum,-94.0879 , 41.8261
Q5470627,Forstbotanischer Garten in Hannoversch Münden,9.6595 , 51.415
Q5470640,Forstlicher Versuchsgarten Grafrath,11.1585 , 48.1312
Q5472380,Fort Worth Botanic Garden,-97.363889 , 32.7375
Q5473778,Mount Tomah Botanic Garden,150.423 , -33.5391
Q5477143,Foxfire Botanical Gardens,-90.1696 , 44.7343
Q5477354,St. Lucia Botanical Gardens,-61.0483 , 13.8525
Q5477670,Mabery Gelvin Botanical Garden,-88.3943 , 40.2038
Q5480434,University of Wisconsin–Madison Arboretum,-89.430652777 , 43.041425
Q5481608,Green Bay Botanical Garden,-88.099 , 44.5316
Q5486082,Frank Curto Park,-79.9769 , 40.4512
Q5489812,Parc botanique de Launay,2.172946 , 48.700906
Q5491740,Franklin Park Conservatory,-82.950556 , 39.965833
Q5495358,Fred Hamilton Rhododendron Garden,-83.79111111 , 35.0175
Q5500098,Free State National Botanical Garden,26.21083333 , -29.05222222
Q5501450,Frelinghuysen Arboretum,-74.453 , 40.803
Q11156851,Q11156851,14.5589356 , 50.0087611
Q11224475,Q11224475,138.941333 , 35.012306
Q11235293,Q11235293,16.5963 , 49.2045
Q11235342,Q11235342,21.23839 , 48.73573
Q11235374,Q11235374,14.4213 , 50.0711
Q11235414,Q11235414,18.125615 , 49.5885053
Q11260140,Q11260140,140.883333 , 37.033333
Q11260219,Iwamizawa Park,141.785555555 , 43.164722222
Q11265896,Q11265896,139.17583333 , 36.4575
Q11273098,Q11273098,134.518722 , 34.015444
Q11273221,Q11273221,133.423472222 , 35.348055555
Q11305067,Q11305067,131.46444444 , 31.68972222
Q11306622,Q11306622,139.534722 , 36.227167
Q11325259,Q11325259,127.99147222 , 26.61069444
Q11335164,Bloedel Reserve,-122.548 , 47.7083
Q11360263,Q11360263,141.342 , 43.0637
Q11377996,Q11377996,140.966947 , 38.237336
Q11380529,Q11380529,139.039528 , 34.797083
Q11380531,Q11380531,139.101 , 34.9072
Q11381641,Tajima Plateau Botanical Gardens,134.572 , 35.4214
Q11383107,Q11383107,130.690778 , 31.091944
Q11397147,Q11397147,140.547 , 35.9376
Q11397314,Q11397314,139.04925 , 36.418833
Q11406052,Q11406052,140.064778 , 35.618222
Q11415127,Q11415127,136.812531 , 35.115442
Q11417470,Wakayama Prefecture Kii-fudoki-no-oka Museum of Archaeology and Folklore,135.229583 , 34.227861
Q11427321,Q11427321,139.825972 , 35.742361
Q11444056,Q11444056,140.09765278 , 35.07666944
Q11450483,Q11450483,137.060744 , 34.930217
Q11469688,Q11469688,138.46494444 , 35.78080556
Q11479135,Q11479135,140.032361 , 38.001972
Q11486557,Q11486557,131.666667 , 32.583333
Q11487751,Gōra Park,139.045139 , 35.248611
Q11494133,Q11494133,137.052 , 35.2352
Q11496999,Temiya Park,141.00225 , 43.214917
Q11498634,Q11498634,135.205833 , 34.735
Q11504396,Q11504396,136.96254722 , 34.97788611
Q11543497,Q11543497,139.64031 , 35.25655
Q11557781,Q11557781,137.73305556 , 34.84
Q11581471,Q11581471,130.704697 , 32.808739
Q11589167,Q11589167,139.31180556 , 35.35855556
Q11594341,Q11594341,135.137 , 35.311917
Q11612037,Q11612037,137.137222 , 37.335389
Q11622553,Q11622553,134.5 , 34.133333
Q11626052,Q11626052,140.231278 , 35.117694
Q11633858,Q11633858,137.431944 , 34.721111
Q11641183,Nambo Paradise Botanical Garden,139.821555555 , 34.939916666
Q11648257,Q11648257,144.3835 , 42.98175
Q11663873,Kuragaike Park,137.21685 , 35.098506
Q11664683,Q11664683,135.092806 , 34.641833
Q11679872,Alter Botanischer Garten Hamburg,9.985222222 , 53.559888888
Q11684456,"Magnolia Plantation and Gardens (Charleston, South Carolina)",-80.0892 , 32.8747
Q11684471,Marsh Botanical Garden,-72.9249 , 41.3219
Q11684480,Q11684480,5.6975 , 58.9375
Q11684488,Q11684488,15.5017 , 51.9198
Q11684493,University of Kentucky Research and Education Center Botanical Garden,-87.8573 , 37.098
Q11688583,Leaning Pine Arboretum,-120.663 , 35.3106
Q11695430,Neuer Botanischer Garten der Universität Göttingen,9.9623 , 51.5578
Q11703665,Scott Arboretum,-75.3519 , 39.9064
Q11854549,Botania,30.210833333 , 63.007222222
Q11981731,Q11981731,9.6062364 , 62.3069971
Q11990287,Q11990287,5.32258611 , 60.38758889
Q12059502,Hantam National Botanical Garden,19.17 , -31.39722222
Q12060327,Hodges Gardens State Park,-93.4248 , 31.3692
Q12061907,Miyajima Natural Botanical Garden,132.28822222 , 34.28316667
Q12135229,Odessa Botanical Gardens,30.768889 , 46.441944
Q12176720,Mobile Botanical Gardens,-88.1615 , 30.6996
Q12273822,Q12273822,28.147755555 , 43.404672222
Q12273823,Q12273823,23.299444444 , 42.643333333
Q12297237,Q12297237,28.005352777 , 43.233730555
Q12302850,Q12302850,10.50776667 , 57.42059444
Q12308250,Q12308250,10.1764 , 55.9769
Q12313655,Q12313655,9.49234 , 55.4726
Q12786244,Juliana Alpine Botanical Garden,13.745513 , 46.399024
Q12874443,Balkan Botanic Garden of Kroussia,23.112 , 41.09
Q13091131,Humboldt Botanical Gardens,-124.2 , 40.697
Q13442809,Q13442809,6.0275 , 50.8675
Q13534604,Q13534604,136.967517 , 37.0431
Q13534608,New Canaan Nature Center,-73.5025 , 41.1535
Q13563536,Hartford Botanical Garden,-72.674 , 41.7553
Q13636396,Holden Arboretum,-81.3013 , 41.6126
Q13643615,National Heroes Park,-76.7887259 , 17.9825497
Q14324727,Q14324727,68.780521 , 38.603753
Q14468502,Lewis W. Barton Arboretum,-74.8161 , 39.9052
Q14685978,Jacksonville Arboretum & Gardens,-81.5396 , 30.3462
Q14689260,Muscatine Arboretum,-91.087 , 41.436
Q14689264,Newton Arboretum and Botanical Gardens,-93.016 , 41.703
Q14689872,Overland Park Arboretum and Botanical Gardens,-94.692 , 38.8
Q14692903,Munsinger Gardens and Clemens Gardens,-94.1442 , 45.5504
Q14704991,Norris Forest School Arboretum,-96.6333 , 40.5642
Q14705032,Wayne State College Arboretum,-97.015 , 42.2411
Q14705638,Hunterdon County Arboretum,-74.8595 , 40.5784
Q14708086,New Hanover County Extension Service Arboretum,-77.8353 , 34.2104
Q14708290,Wing Haven Gardens and Bird Sanctuary,-80.8409 , 35.179
Q14708448,Honor Heights Park,-95.4161 , 35.7685
Q14708565,Lendonwood Gardens,-94.7864 , 36.5839
Q14708625,Myriad Botanical Gardens,-97.5179 , 35.4652
Q14715663,Larz Anderson Bonsai Collection,-71.1227 , 42.2986
Q14716398,Dawes Arboretum,-82.4171 , 39.979
Q14716828,Toledo Zoo,-83.5807 , 41.6191
Q5764331,Hilo Tropical Gardens,-155.037 , 19.735
Q5765252,Himeji City Tegarayama Botanical Garden,134.6754 , 34.819
Q5765323,Himi Seaside Botanical Garden,137.0041 , 36.8371
Q5788556,Tama Forest Science Garden,139.279 , 35.646
Q5792262,Tropical Botanical Garden and Research Institute,76.9521 , 8.5036
Q5796845,University of California Botanical Garden,-122.239 , 37.8752
Q5805605,North Coast Regional Botanic Garden,153.124 , -30.2976
Q5806554,Parc botanique de Neuvic,0.46972222 , 45.10138889
Q5810092,National Botanical Garden of Israel,35.2007 , 31.7857
Q5815109,Parc archéologique et botanique de Solutré,4.7198 , 46.2978
Q5815281,Leach Botanical Garden,-122.534 , 45.4741
Q5837199,Jardin botanique des oiseaux,0.756389 , 45.6414
Q5843471,Q5843471,-3.34205556 , 40.50608333
Q5849100,Q5849100,-6.409167 , 38.683056
Q5873822,Ho'omaluhia Botanical Garden,-157.808 , 21.3878
Q5880077,Holehird Gardens,-2.9096 , 54.3993
Q5883298,Holmdel Arboretum,-74.141 , 40.3306
Q5920617,Howard Peters Rawlings Conservatory and Botanic Gardens of Baltimore,-76.6461 , 39.3186
Q5921142,Howard Van Vleck Arboretum,-74.2249 , 40.8186
Q5925182,"Huajiachi Botanical Garden, Zhejiang University",120.159 , 30.2659
Q5926368,Q5926368,-5.615958333 , 43.521563888
Q5926371,Q5926371,-3.75 , 57.25
Q5926378,Q5926378,152.9913 , -30.1731
Q5926384,Q5926384,-107.3878 , 24.8041
Q5926388,Q5926388,-5.747888888 , 36.443944444
Q5926394,Q5926394,-5.616667 , 37.866667
Q5926397,Q5926397,-4.953391 , 36.511128
Q5926405,Ignacio Rodríguez Alconedo Botanical Garden,-98.2008 , 19.0014
Q5926425,Q5926425,51.4167 , 35.7
Q5926428,Q5926428,24.349722 , 56.858611
Q5926434,Q5926434,19.46666667 , -33.6
Q5926438,Q5926438,-0.531667 , 39.7
Q5926442,Q5926442,2.791667 , 41.676944
Q5926445,Q5926445,-56.0674 , -34.8941
Q5926448,Q5926448,-102.315025 , 21.913381
Q5926451,Q5926451,2.833333 , 41.683333
Q5926475,Q5926475,-2.3704 , 51.3858
Q5926479,Q5926479,145.7023 , -17.0132
Q5926482,Jardín Botánico de Castilla-La Mancha,-1.86001667 , 38.975175
Q5926487,Q5926487,-2.10472222 , 57.16777778
Q5926489,Q5926489,-4.778889 , 37.884722
Q5926511,Kyneton Botanic Gardens,144.5221998 , -37.1403
Q5926532,Q5926532,-3.852222 , 40.260556
Q5926534,Q5926534,-66.8982 , 10.496
Q5926538,Q5926538,36.81309983 , -1.27429983
Q5926545,Q5926545,35.107961 , 32.711992
Q5926555,Q5926555,-122.156111 , 38.063333
Q5926558,Q5926558,21.5 , 61.133333
Q5926560,Q5926560,150.5023 , -23.4085
Q5926562,Q5926562,-0.9975 , 43.74777778
Q5926572,Sevan Botanical Garden,44.969508 , 40.557203
Q5926577,Q5926577,106.9219998 , 47.9138
Q5926580,Q5926580,44.5 , 40.81666667
Q5926583,Q5926583,-0.8956 , 41.6344
Q5926600,Q5926600,-15.528933333 , 28.124541666
Q5926612,Q5926612,73.37999983 , 31.37999983
Q5926614,Q5926614,145.048 , -37.7218
Q5926617,Q5926617,78.4866 , 17.385
Q5926619,Q5926619,46.627 , 24.722
Q5926623,Jardín Botánico de la Universidad de Granada,-3.6025 , 37.17777778
Q5926630,Q5926630,30.15 , 62.733
Q5926636,Q5926636,27.6793 , 62.8933
Q5926644,Jardín Botánico de la Universidad de Málaga,-4.468694444 , 36.716166666
Q5926649,Botanical Garden of Szeged,20.1961 , 46.9615
Q5926662,Q5926662,28.886111 , 61.868056
Q5926672,Jardín Botánico Exterior,-99.196130555 , 19.3123
Q5926676,Jardín Botánico del Museo de Gavá,2.00389 , 41.3072
Q5926678,Q5926678,-2.90140833 , 37.78425278
Q5926682,Q5926682,-99.033333 , 22.916667
Q5926685,Q5926685,-66.039444 , 18.231389
Q5926720,Q5926720,139.4333333 , 35.71666667
Q5926737,Q5926737,-55.8963747 , -27.4085241
Q5926739,Q5926739,-58.65 , -34.66666667
Q5926748,Q5926748,-58.03333333 , -31.38333333
Q5926752,Q5926752,-67.481667 , -29.161389
Q5926755,Q5926755,-76.58333333 , 20.08333333
Q5926758,Q5926758,-64.4919 , -31.0768
Q5926770,Q5926770,-77.43333333 , 4.01666667
Q5926777,Q5926777,-66.1396673 , -17.3772163
Q5926779,Q5926779,149.668 , -27.265
Q5926782,Jardín botánico Nacional de Cuba,-82.3666 , 23.1333
Q5926785,Q5926785,-71.501111 , -33.043889
Q5926790,Q5926790,-83.6666 , 22.5833
Q5926793,Q5926793,-61.97215 , -38.064933
Q5926802,Q5926802,-3.61333 , 40.8639
Q5926805,Q5926805,144.2866 , -36.7665
Q5926807,Buninyong botanic gardens,143.884 , -37.65
Q5926811,Camperdown botanic gardens,143.11773 , -38.23695
Q5926814,Q5926814,-119.7 , 36.816667
Q5926817,Q5926817,142.683 , -16.0056
Q5926823,Q5926823,-90.2307 , 15.7834
Q5926829,Q5926829,142.024 , -37.7468
Q5926832,Horsham botanic gardens,142.2 , -36.7
Q5926834,Q5926834,142.369444 , -38.297222
Q5926838,Botanical Garden of Medellín,-75.56416667 , 6.27083333
Q5926841,Q5926841,-83.710252 , 22.436219
Q5926857,Q5926857,-76.004684 , -9.304919
Q5926862,Q5926862,144.15088 , -37.3434
Q5926866,Q5926866,-73.2502 , -39.8045
Q15068096,Hirugano Botanical Garden,136.8995 , 35.99875
Q15068097,Ibaraki Botanical Garden,140.436623 , 36.474134
Q15068112,Madhavaram botanical garden,80.242935 , 13.149122
Q15068138,Hi'iaka's Healing Herb Garden,-154.953437 , 19.605684
Q15068141,Na 'Aina Kai Botanical Gardens,-159.3816 , 22.2112
Q15068182,Hauck Botanic Gardens,-84.5003 , 39.1296
Q15068194,Hershey Gardens,-76.657 , 40.2987
Q15068195,Holtwood Arboretum,-76.33 , 39.837
Q15068219,Makana Botanical Gardens,26.5209 , -33.3156
Q15107882,Q15107882,13.922714 , 51.105011
Q15207803,Moore Farms Botanical Garden,-79.822822222 , 33.861488888
Q15262331,Nikko Botanical Garden,139.6 , 36.75
Q15304757,Q15304757,15.45713 , 47.081774
Q15712913,Sukorambi Botanical Garden,113.663342 , -8.162825
Q15820827,Q15820827,-89.247057 , 13.670174
Q15972919,Jardin Jungle Karlostachys,1.450882 , 50.025553
Q16132546,Ein Gedi Botanical Gardens,35.3833 , 31.45
Q16303803,Q16303803,2.273 , 45.381
Q16508372,Q16508372,2.65278 , 50.0028
Q16508380,Q16508380,2.1233 , 50.1964
Q16510029,Q16510029,1.7074 , 49.9444
Q16580816,Q16580816,-118.11 , 34.127222
Q16580825,Q16580825,-57.93138889 , -34.9125
Q16580884,Q16580884,9.1945 , 44.5421
Q16580893,Q16580893,-99.500833 , 18.684167
Q16580901,Q16580901,-159.3816 , 22.2112
Q16580929,Q16580929,-106.109 , 35.5925
Q16580932,Q16580932,139.51 , 35.4394
Q16580941,Q16580941,123.746 , 24.3631
Q16615423,Kubota Palm Garden,132.8037 , 33.6877
Q16645064,Q16645064,3.6827 , 43.4422
Q16735524,Q16735524,27.4675 , 53.83694444
Q16802179,Q16802179,6.02732 , 47.2425
Q16902084,Tulsa Botanic Garden,-96.06 , 36.2091
Q16964582,Q16964582,4.7911 , 49.7539
Q17052559,Lae Botanic Gardens,146.995362 , -6.719509
Q17212514,Q17212514,134.924694 , 35.077472
Q17213039,Q17213039,138.770278 , 34.783333
Q17222373,Banshu Yamasaki Iris Garden,134.55736111 , 35.00886111
Q17224197,Q17224197,134.04975 , 34.852694
Q17226252,Q17226252,141.4515 , 43.002444
Q17229517,Nabana no Sato,136.703556 , 35.081111
Q17279812,Q17279812,-3.50694 , 40.5669
Q17279813,Q17279813,-8.65833 , 42.7386
Q17279814,Q17279814,-5.67562 , 42.0049
Q17279815,Q17279815,-0.415 , 38.4028
Q17279816,Q17279816,-6.95 , 37.25
Q17623038,Q17623038,-73.9585 , 40.6707
Q17630747,Q17630747,3.32553 , 43.398
Q17990227,Q17990227,137.96553389 , 34.82610278
Q18213068,Schynige Platte Alpine Garden,7.91161 , 46.6535
Q18337868,"Botanischer Garten, Duisburg-Hamborn",6.766841 , 51.487073
Q18418712,Q18418712,106.631 , 29.5553
Q18418721,Q18418721,106.546 , 29.5527
Q18418724,Q18418724,113.008 , 28.2083
Q18418728,Q18418728,104.082 , 30.661
Q18432909,Q18432909,21.026666666 , 52.2175
Q18574984,Botanical Garden in Bečov nad Teplou,12.8266667 , 50.0813889
Q18578011,Q18578011,-61.1677 , 14.7496
Q18578016,Q18578016,-72.0713 , 45.8607
Q18771183,Hartekamp,4.597222222 , 52.328611111
Q18771243,Oud Poelgeest,4.485 , 52.179611
Q18775796,Diergaarde Blijdorp,4.453333 , 51.926944
Q18785665,Q18785665,-52.5256 , 5.02108
Q18785758,Q18785758,4.71271 , 49.7743
Q19601767,Q19601767,17.117528611 , 49.467475555
Q19601768,Q19601768,13.7381672 , 50.0999311
Q20128291,Q20128291,10.45347 , 51.805012
Q20403430,Q20403430,24.3551 , 56.8654
Q20522889,Sežana botanical park,13.875116666 , 45.710488888
Q21406869,Q21406869,47.48983 , 42.98778
Q22963206,Q22963206,-1.621771 , 49.6235
Q23034758,Giardino Botanico Preistorico di Molina di Ledro,10.78333333 , 45.86666667
Q24206915,Halytskyi Botanical Garden,25.51179 , 49.52741
Q24871474,Q24871474,140.389444 , 37.273333
Q25841894,Betty Molesworth Botanic Park,-5.4843 , 36.179
Q26202489,Botanique spaces of the university of Liège,5.623082 , 50.606971
Q27919299,Crocoparc Agadir,-9.483611111 , 30.388333333
Q28058155,Q28058155,6.48815 , 47.68639
Q28945699,Q28945699,10.192533 , 36.845889
Q29584002,Borika Bothanical garden,23.661666666 , 42.48625
Q29882974,Q29882974,11.610083333 , 46.065138888
Q31184737,Q31184737,19.879472222 , 44.269388888
Q37778025,George Pegg Homestead and Botanic Garden,-114.520896 , 53.808688
Q41015695,National Fruit Collection,0.87916 , 51.300323
Q41792201,Q41792201,34.813972222 , 32.101222222
Q43179137,Monte Palace Tropical Garden,-16.902222222 , 32.673888888
Q44646444,Elgin Botanical Garden,-73.979166666 , 40.758611111
Q5926869,Q5926869,-75.49446 , 5.05632
Q5926872,Q5926872,-71.65649983 , -35.42269983
Q5926875,Q5926875,-64.24972222 , -31.38638889
Q5926879,Q5926879,-2.043416666 , 36.849458333
Q5926882,Q5926882,-77.40000153 , 6.38333321
Q5926887,Q5926887,150.1649 , -35.6864
Q5926948,Q5926948,140.35 , 38.25
Q5926984,Q5926984,-75.8166 , 20.0166
Q5928661,Hudson Gardens,-105.023 , 39.6046
Q5935387,Q5935387,139.417222 , 35.773217
Q5935607,Hulda Klager Lilac Gardens,-122.753 , 45.8972
Q5937864,Q5937864,-0.415 , 38.402778
Q5945847,Huntsville Botanical Garden,-86.633 , 34.707
Q5946290,"South China Botanical Garden, Chinese Academy of Sciences",113.364 , 23.1868
Q5954531,Morikami Museum and Japanese Gardens,-80.1488 , 26.4258
Q5954731,Mizunomori Water Botanical Garden,135.940458 , 35.074078
Q5963016,Kanagawa Prefectural Ofuna Botanical Garden,139.520788 , 35.348036
Q5984944,Ibusuki Experimental Botanical Garden,130.638288 , 31.251256
Q5987437,Idaho State Arboretum,-112.434 , 42.8613
Q6023097,Indiana Botanic Gardens,-87.3006 , 41.5497
Q6034535,The Journey Museum and Gardens,-103.219 , 44.0866
Q6035874,Innisfree Garden,-73.7471 , 41.7604
Q6050639,International Forest of Friendship,-95.1491 , 39.5324
Q6051707,International Larix Arboretum,-114.058 , 48.3838
Q6052362,International Peace Gardens,-111.921 , 40.7475
Q6064256,Iowa Arboretum,-93.86 , 41.9381
Q6080270,Ishikawa Forest Experiment Station,136.64277778 , 36.42916667
Q6083215,Portland Botanical Gardens,141.6 , -38.33333333
Q6094461,Itha T. Krumme Memorial Arboretum,-95.6119 , 40.0694
Q6101950,Real Jardín Botánico Alfonso XIII,-3.728056 , 40.449167
Q6105048,J. C. Raulston Arboretum,-78.6991 , 35.7945
Q6113013,Q6113013,-76.792 , 17.99269983
Q6120820,Seiwa-en,-90.2619 , 38.6101
Q6149771,Nagai Botanical Garden,135.52166667 , 34.61055556
Q6159633,Jardim Botânico,-23.603654 , 15.048823
Q6159677,Jardin Botanique Montagnard,4.2402 , 45.0428
Q6159684,Jardin aux Plantes la Bouichère,2.223 , 43.0692
Q6159686,Jardin Serre de la Madone,7.4755 , 43.7755
Q6159688,Jardin botanique E.M. Heckel,5.3847 , 43.2598
Q6159690,Jardin botanique Floralpina,2.758 , 50.2852
Q6159696,Jardin botanique Henri Gaussen,1.44972222 , 43.59333333
Q6159698,Jardin botanique Nicolas Boulay,3.0447 , 50.6327
Q6159700,"Jardin botanique Pierre Fabre ""La Michonne""",2.25 , 43.6
Q6159704,"Jardin botanique alpin ""Daniella""",1.251 , 45.8213
Q6159706,Jardin botanique d'Alaije,0.64972222 , 45.365
Q6159707,Jardin botanique d'Aubrac,2.92194444 , 44.59138889
Q6159712,Jardin botanique d'Auvergne,3.0875 , 45.78055556
Q6159714,Jardin botanique de Bayeux,-0.7176 , 49.2855
Q6159716,Jardin botanique de Briollay,-0.50722222 , 47.565
Q6159718,Jardin botanique de Cayenne,-52.3203 , 4.939
Q6159722,Jardin botanique de Saint Xist,3.17333333 , 43.83194444
Q6159724,Jardin botanique de Mont Cenis,6.90083333 , 45.26027778
Q6159726,Jardin botanique de Saint-Chamond,4.51527778 , 45.4775
Q6159729,Jardin botanique de Sannois des Plantes Médicinales,2.25777778 , 48.97222222
Q6159735,Jardin botanique de Sedan,4.9464 , 49.6972
Q6159736,Jardin botanique de Tourcoing,3.1676 , 50.7245
Q6159739,Jardin botanique de l'Hôpital d'Instruction des Armées Clermont-Tonnerre,-4.48556 , 48.3908
Q6159740,Jardin botanique de l'Institut National,1.9428 , 48.8471
Q6159744,Jardin botanique de l'École nationale vétérinaire d'Alfort,2.425 , 48.8126
Q6159746,Jardin botanique de la Bastide,-0.5623 , 44.846
Q6159747,Jardin botanique de la Faculté de Pharmacie,3.0419 , 50.6058
Q6159750,Jardin botanique de la Villa Thuret,7.12444444 , 43.56388889
Q6159752,Jardin botanique de la Roche Fauconnière,-1.61666667 , 49.63305556
Q6159757,Jardin botanique des Causses,3.07833333 , 44.09861111
Q6159758,Jardin botanique des Cordeliers,6.23638889 , 44.09333333
Q6159760,Jardin botanique des Montagnes Noires,-3.7274 , 48.1757
Q6159769,Jardin botanique du Val d'Yser,2.54861111 , 50.90138889
Q6159771,Jardin botanique du col de Saverne,7.33055556 , 48.75527778
Q6159774,Jardin botanique et verger de La Bussière,0.824444 , 46.6353
Q6159779,Jardin botanique textile,4.53194444 , 47.51277778
Q6159783,Jardin botanique universitaire de Poitiers,0.4092 , 46.5565
Q6159786,Jardin d'acclimatation du Mourillon,5.9464 , 43.1088
Q6159789,Jardin d'agrumes du Palais Carnolès,7.4886 , 43.7673
Q6159796,Jardin des Paradis,1.95361 , 44.0644
Q6159798,Jardin des plantes de La Rochelle,-1.1505 , 46.1651
Q6159801,Jardin exotique du Fort Napoléon,-61.5825 , 15.8752
Q6159804,Jardin ethnobotanique d'Eyne,2.08306 , 42.4747
Q6159807,Jardin géo-botanique,4.8604 , 46.7856
Q6159860,Jardins d'Eau,1.27694444 , 44.84083333
Q6159863,Jardins de Coursiana,0.4926 , 43.9777
Q6159866,Jardins ethnobotaniques de la Gardie,4.15083 , 44.1797
Q6161770,Jasmine Hill Gardens,-86.186 , 32.496
Q6171795,Santillana Zoo,-4.10289 , 43.3811
Q6177578,Jenkins Arboretum,-75.4326 , 40.0617
Q6183529,Jerry E. Clegg Botanic Garden,-86.8786 , 40.4172
Q6186409,Jesse Hepler Lilac Arboretum,-70.935 , 43.1364
Q6204096,Jo Allyn Lowe Park,-95.9464 , 36.7153
Q6217139,Johannesburg Botanical Garden,28.0 , -26.15
Q6217664,John A. Finch Arboretum,-117.467 , 47.641
Q6224422,John C. Gifford Arboretum,-80.2803 , 25.7238
Q6241319,John J. Tyler Arboretum,-75.431111 , 39.934722
Q6251603,John P. Humes Japanese Stroll Garden,-73.5737 , 40.8736
Q6253997,John R. Rodman Arboretum,-117.705 , 34.1047
Q6313620,Juniper Level Botanic Garden,-78.6396 , 35.6262
Q6346643,Kagoshima Botanical Garden,130.56316667 , 31.57055556
Q6347531,Kaia Ranch Tropical Botanical Gardens,-156.032 , 20.7953
Q6354084,Kalmia Gardens,-80.1164 , 34.3661
Q6354264,Kalopa State Recreation Area,-155.439 , 20.0386
Q6360650,Kanapaha Botanical Gardens,-82.4089 , 29.6122
Q6365017,Kansas Landscape Arboretum,-97.011 , 39.195
Q6365086,Kansas State University Gardens,-96.58497222 , 39.19521944
Q6373245,Karoo Desert National Botanical Garden,19.45083333 , -33.61611111
Q6379501,Kawaguchi Green Center,139.72638889 , 35.84583333
Q6383740,Keilor Botanic Gardens,144.857 , -37.7129
Q6394310,Kerr Arboretum and Botanical Area,-94.6317 , 34.6939
Q6398129,Key West Tropical Forest & Botanical Garden,-81.7493 , 24.5737
Q6405286,Taylor Memorial Arboretum,-75.37 , 39.872
Q6413811,Kingwood Center,-82.547778 , 40.76
Q6417925,Kitayama Botanical Garden,135.31711111 , 34.76475
Q6420109,Klehm Arboretum and Botanic Garden,-89.1124 , 42.2446
Q6424313,Kobe Animal Kingdom,135.22305556 , 34.65416667
Q6424318,Kobe Municipal Arboretum,135.17805556 , 34.74111111
Q6433318,Kosobe Conservatory,135.63086111 , 34.85538889
Q6438783,Krohn Conservatory,-84.4904 , 39.1152
Q6439185,Kruckeberg Botanic Garden,-122.377 , 47.7763
Q6442170,Kuhnert Arboretum,-98.4756 , 45.4389
Q6442701,Kula Botanical Garden,-156.327 , 20.7922
Q6446462,Kurpark Bad Bellingen,7.5538 , 47.7305
Q6449893,KwaZulu-Natal National Botanical Garden,30.3467 , -29.6078
Q6451242,Q6451242,-79.7874 , -4.0345
Q6451246,Castlemaine botanic gardens,144.21557 , -37.05262
Q6451261,Warrnambool Botanic Gardens,142.48454 , -38.37393983
Q6460012,LSU Hilltop Arboretum,-91.09486 , 30.35636
Q6465257,La Serre Amazonienne,3.87722222 , 43.61194444
Q6475769,Lake Erie Arboretum,-80.1175 , 42.1185
Q6478493,Lake Wilderness Arboretum,-122.041 , 47.3806
Q6492906,Lasdon Park and Arboretum,-73.7346 , 41.2759
Q6507400,Le Parc aux Bambous,1.7511 , 43.1467
Q6509400,Leaming's Run Gardens,-74.7675 , 39.1432
Q6512645,Ledge View Nature Center,-88.15538 , 44.0016
Q6515686,Lee and Virginia Graver Arboretum,-75.3635 , 40.8001
Q6519839,Leila Arboretum,-85.2136 , 42.339
Q6525416,Leonard J. Buck Garden,-74.6224 , 40.673
Q6530208,Les Épines de Lespinet,1.60778 , 42.9664
Q6541724,Liberty Forge Arboretum,-76.9269 , 40.1754
Q6547502,Lilac Arboretum and Children's Forest,-93.579 , 41.536
Q6554570,Linnaeus Arboretum,-93.9778 , 44.3207
Q6631744,Vander Veer Botanical Park,-90.5752 , 41.5438
Q6659072,Living Desert Zoo and Gardens State Park,-104.277 , 32.4417
Q6674383,Longue Vue House and Gardens,-90.123092 , 29.976753
Q6674460,Longview Park Conservatory and Gardens,-90.5743 , 41.4951
Q6682068,Los Angeles County Arboretum and Botanic Garden,-118.054 , 34.1416
Q6688622,Louise Arnold Tanger Arboretum,-76.3298 , 40.0426
Q6689283,Louisiana State Arboretum,-92.2879 , 30.8039
Q6689344,Louisiana Tech University Arboretum,-92.6406 , 32.5297
Q6694210,Lowveld National Botanical Garden,30.96611111 , -25.44444444
Q6705512,Luther Burbank Home and Gardens,-122.711667 , 38.436111
Q6708608,Lyndale Park,-93.2958 , 44.9275
Q6709180,Lynn R. Lowrey Arboretum,-95.3989 , 29.7186
Q6713283,M. Young Botanic Garden,-120.06 , 36.7236
Q6749503,Manie van der Schijff Botanical Garden,28.22888889 , -25.75194444
Q6753137,Manuka State Wayside Park,-155.826 , 19.1092
Q6763018,Marie Selby Botanical Gardens,-82.540278 , 27.327778
Q6763683,Marin-Bolinas Botanical Gardens,-122.686 , 37.9094
Q6771028,Markham Regional Arboretum,-122.0 , 37.96
Q6774572,Martha Springer Botanical Garden,-123.03 , 44.9353
Q6784868,Mast Arboretum,-94.6492 , 31.6214
Q6788091,Matsue Vogel Park,132.94402778 , 35.47625
Q6789786,Matthaei Botanical Gardens,-83.664 , 42.3012
Q6792382,Maui Nui Botanical Gardens,-156.486 , 20.8931
Q6796076,Maxwell Arboretum,-96.6653 , 40.8292
Q6799881,McAlester Arboretum,-92.3298 , 38.9482
Q6799907,McAllen Botanical Gardens,-98.2364 , 26.2164
Q6801292,McGill Rose Garden,-80.8273 , 35.2298
Q6801726,McKee Botanical Garden,-80.382 , 27.6076
Q6807694,Meerkerk Rhododendron Gardens,-122.562 , 48.0811
Q6815551,Memorial University of Newfoundland Botanical Garden,-52.75694444 , 47.57083333
Q6816681,Mendocino Coast Botanical Gardens,-123.81 , 39.4092
Q6817823,Mepkin Abbey Botanical Garden,-79.952 , 33.116
Q6818260,Mercer Arboretum and Botanic Gardens,-95.3812 , 30.038
Q6819486,Merion Botanical Park,-75.2508 , 39.9949
Q6827273,Miami Beach Botanical Garden,-80.1357055 , 25.7958014
Q6837731,Michigan State University Horticulture Gardens,-84.4735 , 42.7213
Q6850966,Mildred E. Mathias Botanical Garden,-118.441 , 34.0656
Q6868351,Minnesota Landscape Arboretum,-93.6152 , 44.8619
Q6879712,Missouri State Arboretum,-94.8834 , 40.3533
Q6881835,Mito Municipal Botanical Park,140.42138889 , 36.34027778
Q6884272,Miyakojima City Tropical Plant Garden,125.31527778 , 24.80138889
Q6884925,Mizzou Botanic Garden,-92.3288 , 38.9453
Q6903024,Mont Alto Arboretum,-77.8774 , 40.81
Q6904227,Montana Arboretum and Gardens,-111.05 , 45.6683
Q6906467,Montrose Botanic Gardens,-107.852 , 38.4649
Q6907207,Moody Gardens,-94.8513 , 29.2741
Q6908082,Moorbank Botanic Gardens,-1.635 , 54.987
Q6908498,Moorten Botanical Garden and Cactarium,-116.546 , 33.8003
Q6914006,Morrison Arboretum,-97.0127 , 36.2968
Q6919307,Mount Airy Arboretum,-84.5715 , 39.1818
Q6919414,Mount Annan Botanic Garden,150.767 , -34.0703
Q6921241,Mount Holyoke College Botanic Garden,-72.5724 , 42.2574
Q6921866,Mount Lofty Botanic Garden,138.718 , -34.9857
Q6930263,Mt. Cuba Center,-75.6483 , 39.7903
Q6940574,Museo e Arboreto Carlo Siemoni,11.76666667 , 43.71666667
Q6941117,Museum of the Shenandoah Valley,-78.18 , 39.1854
Q6944087,Muttart Conservatory,-113.477 , 53.5352
Q6948090,Myra Arboretum,-97.6117 , 47.9353
Q6958624,Nagasaki Subtropical Botanical Garden,129.801083 , 32.592722
Q6963591,Nani Mau Gardens,-155.055 , 19.6722
Q414822,Akademischer Forstgarten Gießen,8.7142 , 50.5573
Q507422,"Anderson Park, Townsville",146.785 , -19.2914
Q539775,Dendrological Garden in Przelewice,15.08222222 , 53.10694444
Q568666,Arnold Arboretum,-71.122777777 , 42.297777777
Q578274,Q578274,18.3688889 , 48.3197222
Q579893,Trsteno Arboretum,17.98333333 , 42.71666667
Q593219,Arboretum of Alcsút,18.59777778 , 47.42333333
