item,label,lon,lat
Q5029,Colón,-80.906666666 , 22.7225
Q5030,Sagua La Grande,-80.071111111 , 22.808611111
Q5042,Cruces,-80.276111111 , 22.341944444
Q5044,Cumanayagua,-80.201111111 , 22.152222222
Q5045,Lajas,-80.290555555 , 22.416388888
Q5083,Seattle,-122.316666666 , 47.6
Q5087,Siliguri,88.683333333 , 27.2
Q5092,Baltimore,-76.615 , 39.286388888
Q5099,Nadym,72.516666666 , 65.533333333
Q5112,Adelaide,138.583333333 , -34.933333333
Q5168,Makhachkala,47.483333333 , 42.983333333
Q5196,Grozny,45.7 , 43.316666666
Q5206,Stavropol,41.983333333 , 45.05
Q5222,Magas,44.816666666 , 43.166666666
Q5239,Vladikavkaz,44.65 , 43.016666666
Q5265,Nalchik,43.616666666 , 43.483333333
Q5266,Novo Mesto,15.162777777 , 45.798055555
Q5316,Rovinj,13.633333333 , 45.083333333
Q5326,Cherkessk,42.0575 , 44.222222222
Q5332,Saratov,46.0 , 51.533333333
Q5337,Orenburg,55.1 , 51.766666666
Q5343,Saransk,45.183333333 , 54.183333333
Q5384,Kirov,49.65 , 58.6
Q5408,Zaprešić,15.8 , 45.85
Q5426,Izhevsk,53.216666666 , 56.85
Q5449,Yoshkar-Ola,47.895833333 , 56.632777777
Q5465,Cape Town,18.425 , -33.925
Q5468,Durban,31.025 , -29.858333333
Q5470,Cheboksary,47.25 , 56.133333333
Q5540,Penza,45.0 , 53.2
Q5584,Zelenogradsk,20.483333333 , 54.95
Q5627,Ulyanovsk,48.366666666 , 54.316666666
Q5640,Koprivnica,16.816666666 , 46.15
Q5647,Sovetsk,21.883333333 , 55.083333333
Q5655,Chernyakhovsk,21.816666666 , 54.633333333
Q5660,Baltiysk,19.916666666 , 54.65
Q5663,Gusev,22.2 , 54.583333333
Q5665,Svetly,20.133333333 , 54.683333333
Q5668,Gvardeysk,21.066666666 , 54.65
Q5671,Neman,22.033333333 , 55.033333333
Q5687,Jericho,35.463055555 , 31.856111111
Q5699,Ur,46.104444 , 30.962222
Q5713,Mary,61.833333333 , 37.6
Q5724,Anuradhapura,80.383611111 , 8.35
Q5760,Thebes,23.323611111 , 38.324166666
Q5764,Bukhara,64.428611111 , 39.774722222
Q5776,Bethlehem,35.206111111 , 31.704444444
Q5788,Petra,35.440277777 , 30.328888888
Q5789,Subulussalam,98.004166666 , 2.642222222
Q5806,Mecca,39.826111111 , 21.4225
Q5815,Tyumen,65.533333333 , 57.15
Q5818,Córdoba,-4.766666666 , 37.883333333
Q5832,Axum,38.717257 , 14.128397
Q5836,Toledo,-4.033333333 , 39.866666666
Q5867,Vukovar,19.003333333 , 45.35
Q5917,Huntington Beach,-117.999722222 , 33.692777777
Q5980,Alajärvi,23.816666666 , 63.0
Q5981,Alavus,23.619444444 , 62.586111111
Q5992,Kauhajoki,22.176388888 , 62.423611111
Q6009,Kauhava,23.063888888 , 63.101388888
Q6014,Barnaul,83.787222222 , 53.356666666
Q6016,Kurikka,22.4 , 62.616666666
Q6023,Lapua,23.006944444 , 62.970833333
Q6025,Gorno-Altaysk,85.96 , 51.96
Q6046,Novara,8.616666666 , 45.45
Q6049,Kyzyl,94.45 , 51.716666666
Q6066,Kemerovo,86.066666666 , 55.333333333
Q6106,Portland,-122.666666666 , 45.516666666
Q6157,Seinäjoki,22.840277777 , 62.790277777
Q6172,Ähtäri,24.069444444 , 62.55
Q6221,Brescia,10.220280555 , 45.538888888
Q6225,Coventry,-1.516666666 , 52.416666666
Q6226,St Albans,-0.336 , 51.755
Q6252,Monza,9.273611111 , 45.584722222
Q6285,Varese,8.833333333 , 45.816666666
Q6329,Khanty-Mansiysk,69.006238888 , 61.000822222
Q6346,Indianapolis,-86.158055555 , 39.767777777
Q6364,Uchkuduk,63.555555555 , 42.156666666
Q6441,Montpellier,3.877230555 , 43.610919444
Q6487,Antalya,30.683333333 , 36.9
Q6494,Salekhard,66.633333333 , 66.533333333
Q6506,Varna,27.916944444 , 43.207777777
Q6509,Burgas,27.466666666 , 42.5
Q6526,Bolzano,11.35 , 46.5
Q6537,Vicenza,11.55 , 45.55
Q6555,Narbonne,3.003611111 , 43.184722222
Q6576,Irkutsk,104.3 , 52.283333333
Q6580,Rome,-85.185 , 34.26
Q6586,Rome,-75.463333333 , 43.219444444
Q6610,Yakutsk,129.731944444 , 62.027222222
Q6647,Lalitpur,85.3333 , 27.6833
Q6737,Castellammare di Stabia,14.483333333 , 40.7
Q6761,Livorno,10.316666666 , 43.55
Q6780,Hohnstein,14.116666666 , 50.983333333
Q6816,Ulan-Ude,107.616666666 , 51.833333333
Q6837,Lutherstadt Wittenberg,12.649722222 , 51.865833333
Q6916,Herzogenrath,6.1 , 50.866666666
Q6934,Blagoveshchensk,127.536388888 , 50.257777777
Q6986,Gotha,10.718333333 , 50.948888888
Q61,"Washington, D.C.",-77.036666666 , 38.895
Q62,San Francisco,-122.433333 , 37.766667
Q64,Berlin,13.383333333 , 52.516666666
Q70,Bern,7.438611111 , 46.950833333
Q71,Geneva,6.15 , 46.2
Q72,Zurich,8.54 , 47.378611111
Q78,Basel,7.591111111 , 47.550555555
Q84,London,-0.1275 , 51.507222222
Q88,Alexandria,-77.047222222 , 38.804722222
Q90,Paris,2.351827777 , 48.856577777
Q100,Boston,-71.061666666 , 42.357777777
Q172,Toronto,-79.4 , 43.7
Q174,São Paulo,-46.61667 , -23.5
Q226,Nuuk,-51.733333333 , 64.175
Q237,Vatican City,12.453 , 41.904
Q268,Poznań,16.916666666 , 52.4
Q269,Tashkent,69.266666666 , 41.3
Q270,Warsaw,21.033333333 , 52.216666666
Q279,Modena,10.92572 , 44.64582
Q334,Singapore,103.8 , 1.3
Q342,Quimper,-4.097777777 , 47.995833333
Q350,Cambridge,0.1225 , 52.208055555
Q365,Cologne,6.957777777 , 50.942222222
Q384,Skopje,21.433333333 , 41.983333333
Q385,Gdynia,18.533333333 , 54.5
Q393,Szczecin,14.555277777 , 53.424722222
Q406,Istanbul,28.960277777 , 41.01
Q436,Szczebrzeszyn,22.966666666 , 50.683333333
Q438,Vrhnika,14.293611111 , 45.962222222
Q439,Wąchock,21.013611111 , 51.074166666
Q459,Plovdiv,24.748888888 , 42.143333333
Q490,Milan,9.190336 , 45.464161
Q495,Turin,7.7 , 45.066666666
Q546,Trieste,13.804166666 , 45.636111111
Q580,Łódź,19.458511111 , 51.759494444
Q582,Villeurbanne,4.879444444 , 45.766111111
Q588,Katowice,19.0 , 50.25
Q598,Rzeszów,22.0 , 50.05
Q612,Dubai,55.309444444 , 25.269722222
Q617,Padua,11.877777777 , 45.406388888
Q621,Versailles,2.134166666 , 48.804722222
Q622,Ludwigsburg,9.191944444 , 48.8975
Q628,Bergamo,9.67 , 45.695
Q641,Venice,12.331944444 , 45.439722222
Q644,Sharm el-Sheikh,34.393611111 , 27.978611111
Q647,Rennes,-1.680833333 , 48.114166666
Q648,Lille,3.0575 , 50.631944444
Q649,Moscow,37.617777777 , 55.755833333
Q715,Heilbronn,9.216666666 , 49.15
Q727,Amsterdam,4.9 , 52.383333333
Q749,Groningen,6.55 , 53.216666666
Q761,Białystok,23.166666666 , 53.116666666
Q768,Supetar,16.555277777 , 43.384444444
Q793,Zwolle,6.1 , 52.516666666
Q798,Assen,6.55 , 53.0
Q802,Nowy Sącz,20.697222222 , 49.623888888
Q807,Lausanne,6.633333333 , 46.533333333
Q875,Abakan,91.416666666 , 53.716666666
Q883,Novosibirsk,82.916666666 , 55.033333333
Q887,Yekaterinburg,60.583333333 , 56.833333333
Q891,Nizhny Novgorod,44.0075 , 56.326944444
Q894,Samara,50.116666666 , 53.183333333
Q898,Omsk,73.383333333 , 54.966666666
Q900,Kazan,49.114444444 , 55.790833333
Q906,Chelyabinsk,61.4 , 55.15
Q908,Rostov-on-Don,39.716666666 , 47.233333333
Q911,Ufa,55.966666666 , 54.733333333
Q915,Perm,56.248888888 , 58.013888888
Q919,Krasnoyarsk,92.866666666 , 56.016666666
Q956,Beijing,116.391388888 , 39.905
Q959,Vladivostok,131.9 , 43.116666666
Q975,San Antonio,-98.493333333 , 29.428611111
Q976,Tomsk,84.952222222 , 56.488611111
Q987,New Delhi,77.2 , 28.7
Q994,Tbilisi,44.783333333 , 41.716666666
Q995,Appingedam,6.866666666 , 53.316666666
Q1010,Maribor,15.633333333 , 46.55
Q1012,Celje,15.2675 , 46.235833333
Q1015,Koper,13.729444444 , 45.546527777
Q1017,Aachen,6.0825 , 50.774167
Q1018,Nova Gorica,13.65 , 45.966666666
Q1021,Kranj,14.366666666 , 46.233333333
Q1022,Stuttgart,9.1775 , 48.776111111
Q1034,Biel/Bienne,7.247222222 , 47.137222222
Q1040,Karlsruhe,8.404166666 , 49.013888888
Q1055,Hamburg,10.0 , 53.55
Q1070,Ahmedabad,72.58 , 23.03
Q1083,Salerno,14.759722222 , 40.680555555
Q1154,Jamnagar,70.07 , 22.47
Q1155,Busto Arsizio,8.8518 , 45.611958333
Q1156,Mumbai,72.833333333 , 18.966666666
Q1218,Jerusalem,35.233333333 , 31.783333333
Q1289,Grenoble,5.726388888 , 45.186944444
Q1295,Dortmund,7.465277777 , 51.513888888
Q1296,Ghent,3.716666666 , 51.05
Q1297,Chicago,-87.65 , 41.9
Q1308,Como,9.086138888 , 45.81025
Q1310,Arnhem,5.916666666 , 51.983333333
Q1341,Tolyatti,49.416666666 , 53.516666666
Q3070,San José,-84.083333333 , 9.933333333
Q3085,Reutlingen,9.216666666 , 48.483333333
Q3110,San Salvador,-89.19 , 13.69
Q3114,Canberra,149.141666666 , -35.302777777
Q3118,Oryol,36.083333333 , 52.966666666
Q3130,Sydney,151.208333333 , -33.869444444
Q3138,Trier,6.641388888 , 49.756666666
Q3141,Melbourne,144.961388888 , -37.820555555
Q3150,Jena,11.586388888 , 50.927222222
Q3159,Kursk,36.183333333 , 51.716666666
Q3183,Perth,115.858888888 , -31.952222222
Q3238,Tegucigalpa,-87.206666666 , 14.094166666
Q3274,Managua,-86.266666666 , 12.15
Q3306,Panama City,-79.5 , 9.0
Q3323,Belgorod,36.6 , 50.6
Q3376,Trento,11.116666666 , 46.066666666
Q3415,Ancona,13.516666666 , 43.616666666
Q3426,Voronezh,39.210555555 , 51.671666666
Q3437,Perugia,12.3888 , 43.1121
Q3490,Lipetsk,39.6 , 52.616666666
Q3519,Bari,16.866666666 , 41.125277777
Q3543,Potenza,15.8 , 40.633333333
Q3544,Tambov,41.433333333 , 52.716666666
Q3551,Rabat,-6.836111111 , 34.025277777
Q3579,Tripoli,13.183333333 , 32.9
Q3584,Nový Jičín,18.010308756 , 49.594368444
Q3604,Djibouti,43.148055555 , 11.595
Q3616,Tehran,51.416666666 , 35.7
Q3620,Sapinuwa,35.2375 , 40.25277778
Q3630,Jakarta,106.8 , -6.166666666
Q3640,Ankara,32.866666666 , 39.866666666
Q3642,Asmara,38.916666666 , 15.333333333
Q3646,Krasnodar,38.983333333 , 45.033333333
Q3657,Rietavas,21.927777777 , 55.725
Q3659,N'Djamena,15.072222222 , 12.116388888
Q3674,Niamey,2.111111111 , 13.508611111
Q3685,Calama,-68.916666666 , -22.466666666
Q3688,Nouakchott,-15.974444444 , 18.078333333
Q3711,Belgrade,20.466666666 , 44.816666666
Q3718,Dakar,-17.457222222 , 14.731944444
Q3726,Banjul,-16.5775 , 13.453055555
Q3733,Conakry,-13.712222222 , 9.509166666
Q3739,Bissau,-15.595555555 , 11.859166666
Q3742,Casablanca,-71.416666666 , -33.316666666
Q3748,Monrovia,-10.804722222 , 6.310555555
Q3752,Maykop,40.083333333 , 44.6
Q3761,Accra,-0.187 , 5.6037
Q3766,Damascus,36.291944444 , 33.513055555
Q3780,Freetown,-13.233055555 , 8.483333333
Q3792,Lomé,1.222777777 , 6.131944444
Q3805,Amman,35.933333333 , 31.95
Q3808,Yaounde,11.518055555 , 3.857777777
Q3818,Malabo,8.775265 , 3.752407
Q3825,Libreville,9.4544 , 0.3901
Q3832,Bangui,18.555277777 , 4.361388888
Q3844,Brazzaville,15.283333333 , -4.266666666
Q3854,Bujumbura,29.361111111 , -3.3825
Q3869,Marburg,8.766666666 , 50.816666666
Q3871,Coquimbo,-71.333333333 , -29.95
Q3874,Gießen,8.666666666 , 50.583333333
Q3876,Lilongwe,33.783333333 , -13.983333333
Q3881,Lusaka,28.283333333 , -15.416666666
Q3882,Manama,50.583055555 , 26.216666666
Q3889,Maputo,32.576388888 , -25.915277777
Q3894,Kampala,32.581111111 , 0.313611111
Q3901,Moroni,43.253611111 , -11.703611111
Q3909,Maseru,27.487777777 , -29.322222222
Q3921,Harare,31.052222222 , -17.829166666
Q3927,Astrakhan,48.016666666 , 46.333333333
Q3929,Port Louis,57.5 , -20.166666666
Q3932,São Tomé,6.733333333 , 0.333333333
Q3940,Victoria,55.454444444 , -4.623611111
Q3955,Weimar,11.316666666 , 50.983333333
Q3963,Fulda,9.6775 , 50.552777777
Q3977,Elista,44.266666666 , 46.316666666
Q3989,Bergheim,6.65 , 50.966666666
Q3992,Liège,5.57568 , 50.64528
Q4035,Osasco,-46.791944444 , -23.532777777
Q4044,Offenburg,7.940833333 , 48.470833333
Q4045,Fujairah,56.35 , 25.116666666
Q4068,Stolberg,6.233333333 , 50.766666666
Q4083,Eschweiler,6.283333333 , 50.816666666
Q4093,Glasgow,-4.27 , 55.87
Q4100,Baden-Baden,8.240833333 , 48.761944444
Q4133,Nordhorn,7.066666666 , 52.433333333
Q4140,Waiblingen,9.316944444 , 48.830277777
Q4178,Wetzlar,8.5 , 50.566666666
Q4301,Arusha,36.683333333 , -3.366666666
Q4361,Curitiba,-49.271944444 , -25.429722222
Q4454,Khabarovsk,135.066666666 , 48.483333333
Q4531,Soltaniyeh,48.7975 , 36.434722
Q4549,Farrukhabad,79.63 , 27.37
Q4629,Surat,72.83 , 21.17
Q4709,Barquisimeto,-69.346694444 , 10.067777777
Q4803,Surakarta,110.816666666 , -7.566666666
Q4999,Calimete,-80.909722222 , 22.533888888
Q5001,Perico,-81.015277777 , 22.775277777
Q5002,Unión de Reyes,-81.537222222 , 22.800277777
Q5004,Rodas,-80.555277777 , 22.342777777
Q11967,Huesca,-0.408897222 , 42.1401
Q11974,Las Palmas de Gran Canaria,-15.431388888 , 28.127222222
Q11977,Tychy,19.0 , 50.166666666
Q11994,Miranda de Ebro,-2.933333333 , 42.683333333
Q12155,Soria,-2.466666666 , 41.766666666
Q12164,Ponferrada,-6.590833333 , 42.546111111
Q12191,Nantes,-1.553888888 , 47.217222222
Q12225,Murcia,-1.130277777 , 37.986111111
Q12233,Santander,-3.8 , 43.466666666
Q12246,Huelba,-6.95 , 37.25
Q12258,Sabadell,2.1075 , 41.548333333
Q12273,Gijón,-5.7 , 43.533333333
Q12292,Villarreal,-0.101388888 , 39.937777777
Q12303,Jerez de la Frontera,-6.116666666 , 36.7
Q12411,Pontevedra,-8.6475 , 42.433611111
Q12429,Houghton,-88.568888888 , 47.121944444
Q12435,Hancock,-88.580833333 , 47.126944444
Q12439,Detroit,-83.0475 , 42.331666666
Q12443,Marquette,-87.4067 , 46.5464
Q12460,Lier,4.566666666 , 51.133333333
Q12887,Schaerbeek,4.366666666 , 50.85
Q12910,Lokeren,3.983333333 , 51.1
Q12994,Bruges,3.22 , 51.209444444
Q12995,Kortrijk,3.266666666 , 50.833333333
Q13121,Aalst,4.033333333 , 50.933333333
Q13122,Dendermonde,4.1 , 51.016666666
Q13127,Sint-Niklaas,4.139166666 , 51.164444444
Q13153,Ronda,-5.164722222 , 36.737222222
Q13329,Piacenza,9.7 , 45.05
Q13360,Reggio Emilia,10.633333333 , 44.7
Q13362,Ferrara,11.619865 , 44.835297
Q13364,Ravenna,12.199444444 , 44.417777777
Q13367,Forlì,12.040833333 , 44.2225
Q13369,Rimini,12.5685 , 44.0595
Q13375,Pisa,10.4 , 43.716666666
Q13377,Prato,11.096561111 , 43.880813888
Q13379,Kurgan,65.341111111 , 55.440833333
Q13386,Lecce,18.169138888 , 40.352011111
Q13410,Latina,12.9037 , 41.467597222
Q13464,Foggia,15.566666666 , 41.466666666
Q13486,Andria,16.308333333 , 41.231666666
Q13498,Taranto,17.240833333 , 40.418055555
Q13629,Sassari,8.559166666 , 40.726666666
Q13666,Messina,15.55 , 38.183333333
Q13670,Syracuse,15.283333333 , 37.083333333
Q13678,Agrigento,13.576547222 , 37.311075
Q13934,Rubí,2.0325 , 41.493333333
Q13939,Terrassa,2.008055555 , 41.561111111
Q13972,Tartu,26.7225 , 58.38
Q14032,Caro,-83.396944444 , 43.491111111
Q14314,Santiago de Compostela,-8.533333333 , 42.883333333
Q14318,Vitoria-Gasteiz,-2.673055555 , 42.846666666
Q14323,Mérida,-6.333333333 , 38.915833333
Q14325,Logroño,-2.445555555 , 42.47
Q14328,Santa Cruz de Tenerife,-16.25 , 28.466666666
Q14336,Teruel‎,-1.107222222 , 40.343611111
Q14453,Egilsstaðir,-14.4 , 65.26666667
Q14657,Vyborg,28.744166666 , 60.709166666
Q14808,Oranienburg,13.236944444 , 52.754444444
Q14845,Dreieich,8.696111111 , 50.018888888
Q14872,Bensheim,8.622777777 , 49.681111111
Q14882,Schorndorf,9.533333333 , 48.8
Q14887,Neumarkt in der Oberpfalz,11.466666666 , 49.283333333
Q14891,Suhl,10.693055555 , 50.610555555
Q14901,Würselen,6.1275 , 50.824722222
Q14920,Neu-Isenburg,8.697083333 , 50.055763888
Q14925,Mühlhausen/Thüringen,10.45 , 51.216666666
Q15088,Tarragona,1.24532 , 41.11868
Q15090,Lleida,0.633333333 , 41.616666666
Q15092,Castelló de la Plana,-0.05 , 39.97
Q15093,Ciudad Real,-3.916666666 , 38.983333333
Q15095,Albacete,-1.855833333 , 38.995555555
Q15098,Cuenca,-2.135 , 40.071666666
Q15174,Shenzhen,114.054 , 22.535
Q15235,Pikalyovo,34.151389 , 59.520767
Q15236,Boksitogorsk,33.85 , 59.483333333
Q15238,Volosovo,29.483333333 , 59.45
Q15245,Volkhov,32.35 , 59.916666666
Q15248,Vsevolozhsk,30.65 , 60.016666666
Q15250,Vysotsk,28.566666666 , 60.616666666
Q15256,Ivangorod,28.205277777 , 59.375
Q15264,Kamennogorsk,29.133333333 , 60.95
Q15270,Kingisepp,28.6 , 59.366666666
Q15273,Kirovsk,30.983333333 , 59.866666666
Q15275,Lodeynoye Pole,33.55 , 60.733333333
Q15279,"Lyuban (town), Leningrad Oblast",31.25 , 59.35
Q15281,Nikolskoye,30.783333333 , 59.7
Q15287,Novaya Ladoga,32.3 , 60.1
Q15301,Podporozhye,34.166666666 , 60.916666666
Q15306,Svetogorsk,28.858333333 , 61.108333333
Q15307,Primorsk,28.616666666 , 60.366666666
Q15309,Sertolovo,30.2 , 60.15
Q15311,Slantsy,28.083333333 , 59.116666666
Q15320,Syasstroy,32.566666666 , 60.133333333
Q15322,Luga,29.85 , 58.733333333
Q15323,Otradnoye,30.816666666 , 59.783333333
Q15335,Sosnovy Bor,29.1 , 59.883333333
Q15336,Tikhvin,33.5 , 59.633333333
Q15337,Tosno,30.9 , 59.55
Q15339,Shlisselburg,31.033333333 , 59.95
Q1352,Chennai,80.27 , 13.09
Q1353,Delhi,77.216666666 , 28.666666666
Q1354,Dhaka,90.366666666 , 23.7
Q1382,Piran,13.570277777 , 45.526111111
Q1432,Wanfried,10.166666666 , 51.183333333
Q1449,Genoa,8.933983333 , 44.407186111
Q1468,Eschwege,10.052777777 , 51.188055555
Q1486,Buenos Aires,-58.381944444 , -34.599722222
Q1492,Barcelona,2.176944444 , 41.3825
Q1513,Nagpur,79.083055555 , 21.153888888
Q1519,Abu Dhabi,54.368611111 , 24.478055555
Q1520,Astana,71.4 , 51.183333333
Q1524,Athens,23.716111111 , 37.979444444
Q1538,Pune,73.847777777 , 18.523611111
Q1555,Guatemala City,-90.531388888 , 14.622777777
Q1694,Bayugan,125.7481 , 8.7143
Q1707,Kiel,10.140555555 , 54.325277777
Q1709,Schwerin,11.416666666 , 53.633333333
Q1715,Hanover,9.738611111 , 52.374444444
Q1718,Düsseldorf,6.816666666 , 51.216666666
Q1724,Saarbrücken,7.0 , 49.233333333
Q1726,Munich,11.566666666 , 48.133333333
Q1729,Erfurt,11.029166666 , 50.978055555
Q1733,Magdeburg,11.616666666 , 52.133333333
Q1737,Bregenz,9.749166666 , 47.505
Q1741,Vienna,16.373064 , 48.20833
Q1748,Copenhagen,12.568888888 , 55.676111111
Q1754,Stockholm,18.068611111 , 59.329444444
Q1757,Helsinki,24.948611111 , 60.173333333
Q1763,Murmansk,33.083333333 , 68.966666666
Q1780,Bratislava,17.112777777 , 48.144722222
Q1781,Budapest,19.040833333 , 47.498333333
Q1799,Wrocław,17.03533 , 51.10773
Q1800,Kochi,76.283333333 , 9.966666666
Q1829,Kaliningrad,20.5 , 54.716666666
Q1842,Luxembourg,6.132777777 , 49.610555555
Q1848,San Marino,12.44845 , 43.932011111
Q1850,Phnom Penh,104.916666666 , 11.55
Q1851,Arkhangelsk,40.533333333 , 64.55
Q1861,Bangkok,100.516666666 , 13.75
Q1862,Wolin,14.611388888 , 53.841388888
Q1867,Taipei,121.633333333 , 25.033333333
Q1874,Odessa,30.743444 , 46.485722
Q1891,Bologna,11.342777777 , 44.493888888
Q1895,Petrozavodsk,34.35 , 61.783333333
Q1903,Catania,15.087269444 , 37.502669444
Q1930,Ottawa,-75.7 , 45.416666666
Q1947,Juba,31.6 , 4.85
Q1957,Vologda,39.9 , 59.216666666
Q1960,Dar es Salaam,39.283333333 , -6.8
Q1963,Khartoum,32.52654 , 15.60308
Q2028,Verona,10.993741666 , 45.438158333
Q2044,Florence,11.254166666 , 43.771388888
Q2058,Whitehorse,-135.055833333 , 60.717222222
Q2079,Leipzig,12.383333333 , 51.333333333
Q2090,Nuremberg,11.077777777 , 49.452777777
Q2096,Edmonton,-113.5 , 53.5
Q2112,Bielefeld,8.516666666 , 52.016666666
Q2123,Regina,-104.606666666 , 50.454722222
Q2127,Charlottetown,-63.128333 , 46.233611
Q2132,Victoria,-123.3657 , 48.422151
Q2137,Totma,42.766666666 , 59.983333333
Q2138,Fredericton,-66.666666666 , 45.95
Q2141,Halifax,-63.6 , 44.65
Q2143,Syktyvkar,50.816666666 , 61.666666666
Q2144,Cherepovets,37.916666666 , 59.133333333
Q2174,Naryan-Mar,53.006666666 , 67.637777777
Q2214,Pskov,28.333333333 , 57.816666666
Q2219,Syzran,48.466666666 , 53.166666666
Q2235,Veliky Novgorod,31.275 , 58.525
Q2239,Kongens Lyngby,12.5 , 55.77
Q2272,Skien,9.552778 , 59.208056
Q2280,Minsk,27.561837 , 53.902246
Q2288,Tver,35.921927777 , 56.857827777
Q2290,Porsgrunn,9.71 , 59.115556
Q2415,Kristiansand,7.99561111 , 58.14672222
Q2423,Yaroslavl,39.85 , 57.616666666
Q2449,Mogadishu,45.3425 , 2.040833333
Q2467,Nassau,-77.333333333 , 25.066666666
Q2471,Sana'a,44.2 , 15.35
Q2592,Kostroma,40.933333333 , 57.766666666
Q2630,Ivanovo,40.983333333 , 57.0
Q2634,Naples,14.25 , 40.833333333
Q2656,Palermo,13.361262 , 38.115658
Q2678,Gomel,30.983333333 , 52.441666666
Q2683,Parma,10.328 , 44.801472222
Q2684,Vladimir,40.416666666 , 56.133333333
Q2734,Skierniewice,20.141666666 , 51.952777777
Q2746,Ryazan,39.716666666 , 54.616666666
Q2759,Urbino,12.6372 , 43.725238888
Q2770,Tula,37.616666666 , 54.2
Q2801,Bryansk,34.366666666 , 53.25
Q2837,Kaluga,36.266666666 , 54.533333333
Q2861,Rostock,12.133333333 , 54.083333333
Q2900,Quito,-78.509722222 , -0.218611111
Q3001,Paramaribo,-55.166666666 , 5.866666666
Q3012,Ulm,9.983333333 , 48.4
Q3033,Göttingen,9.935555555 , 51.533888888
Q3037,Kathmandu,85.366666666 , 27.716666666
Q3043,Belmopan,-88.7675 , 17.25
Q7022,Fellbach,9.275833333 , 48.808611111
Q7024,Lugano,8.9625 , 46.010277777
Q7033,Nordhausen,10.791111111 , 51.505
Q7038,Girona,2.816666666 , 41.983333333
Q7050,Weinheim,8.669722222 , 49.556111111
Q7053,Rodgau,8.884097222 , 50.025625
Q7054,Dalnegorsk,135.616666666 , 44.566666666
Q7057,Lehrte,9.976944444 , 52.3725
Q7067,Bietigheim-Bissingen,9.133333333 , 48.966666666
Q7070,Eisenach,10.324444444 , 50.974722222
Q7072,Halberstadt,11.046666666 , 51.895833333
Q7078,Rottenburg am Neckar,8.934444444 , 48.477222222
Q7342,Oświęcim,19.233333333 , 50.033333333
Q7436,Gatchina,30.133333333 , 59.566666666
Q7525,Sevastopol,33.533333333 , 44.6
Q7550,Lutsk,25.324444444 , 50.747777777
Q7592,Sungai Penuh,101.396111111 , -2.063611111
Q7705,Kommunar,30.4 , 59.625
Q7769,Birobidzhan,132.933333333 , 48.783333333
Q7830,Sudak,34.9725 , 44.851388888
Q7859,Yuzhno-Sakhalinsk,142.733333333 , 46.95
Q7880,Toulouse,1.441944444 , 43.604444444
Q7903,Casablanca,-7.62 , 33.599166666
Q7938,Kirishi,32.016666666 , 59.45
Q7951,Petropavlovsk-Kamchatsky,158.65 , 53.016666666
Q7968,Magadan,150.8 , 59.566666666
Q7977,Priozersk,30.116666666 , 61.033333333
Q7978,Anadyr,177.516666666 , 64.733333333
Q8194,Iława,19.565555555 , 53.596388888
Q8199,Liebstadt,13.855555555 , 50.864722222
Q8210,Neustadt in Sachsen,14.216666666 , 51.023888888
Q8218,Rabenau,13.633333333 , 50.966666666
Q8240,Stadt Wehlen,14.032222222 , 50.956944444
Q8243,Stolpen,14.082777777 , 51.048888888
Q8245,Tharandt,13.580833333 , 50.983333333
Q8248,Wilsdruff,13.538333333 , 51.052222222
Q8336,Hockenheim,8.547222222 , 49.318055555
Q8356,Valladolid,-4.728561111 , 41.651980555
Q8378,Palencia,-4.533333333 , 42.016666666
Q8385,Ostrava,18.2925 , 49.835555555
Q8471,Reggio Calabria,15.65 , 38.114438888
Q8621,Terni,12.65 , 42.566666666
Q8673,Lagos,3.4 , 6.45
Q8678,Rio de Janeiro,-43.196388888 , -22.908333333
Q8686,Shanghai,121.466666666 , 31.166666666
Q8692,Bilbao,-2.953333333 , 43.262222222
Q8717,Seville,-5.983333333 , 37.383333333
Q8745,Vigo,-8.716666666 , 42.233333333
Q8757,A Coruña,-8.383333333 , 43.366666666
Q8802,Getafe,-3.716666666 , 40.3
Q8810,Granada,-3.600833333 , 37.178055555
Q8818,Valencia,-0.375 , 39.466666666
Q8826,Palma,2.649722222 , 39.566666666
Q8851,Málaga,-4.416666666 , 36.716666666
Q9009,Schaffhausen,8.633055555 , 47.7
Q9125,Winterthur,8.75 , 47.499722222
Q9248,Baku,49.835183333 , 40.366655555
Q9270,Thimphu,89.633333333 , 27.483333333
Q9279,Bandar Seri Begawan,114.916666666 , 4.916666666
Q9300,Bernau bei Berlin,13.583055555 , 52.666666666
Q9306,Eberswalde,13.833055555 , 52.833055555
Q9310,Dili,125.573611111 , -8.558611111
Q9326,Vientiane,102.6 , 17.966666666
Q9347,Malé,73.5 , 4.166666666
Q9361,Bishkek,74.566666666 , 42.866666666
Q9365,Dushanbe,68.786388888 , 38.573055555
Q9427,Timbuktu,-2.999443888 , 16.773333055
Q9580,Burgos,-3.699722222 , 42.340833333
Q9783,Roermond,5.9875 , 51.194166666
Q9824,Erode,77.733333333 , 11.35
Q9863,Salem,78.166666666 , 11.65
Q9871,Tilburg,5.0913 , 51.55551
Q9888,Ooty,76.693888888 , 11.408611111
Q9904,Edappadi,77.85 , 11.58
Q9920,Haarlem,4.640555555 , 52.380277777
Q9923,Namakkal,78.166666666 , 11.233333333
Q10006,Hengelo,6.793055555 , 52.265555555
Q10014,Kampen,5.91111 , 52.555
Q10086,Mysore,76.643333333 , 12.303055555
Q10282,Pamplona,-1.65 , 42.816666666
Q10305,Zaragoza,-0.883333333 , 41.65
Q10313,San Sebastián,-1.98 , 43.32
Q10400,Almería,-2.45 , 36.833333333
Q10509,Elche,-0.698333333 , 38.266944444
Q10566,Saskatoon,-106.683333333 , 52.133333333
Q10686,Belfast,-5.938333333 , 54.596666666
Q10717,Georgetown,-58.166666666 , 6.783333333
Q10779,Zwenkau,12.324166666 , 51.2175
Q11025,Semarang,110.416666666 , -6.966666666
Q11125,Lugo,-7.557222222 , 43.011666666
Q11445,Malang,112.62 , -7.98
Q11568,Darwin,130.833333333 , -12.466666666
Q11592,Sonoma,-122.458888888 , 38.288888888
Q11711,Siem Reap,103.859722222 , 13.362222222
Q11746,Wuhan,114.279167 , 30.5725
Q11909,Vadodara,73.2 , 22.3
Q11910,Gandhinagar,72.68 , 23.22
Q27138,Unaizah,43.994 , 26.084
Q27139,Afif,42.920277777 , 23.91
Q27155,El Kef,8.7 , 36.166666666
Q27159,Manouba,10.1 , 36.8
Q27162,Gölcük,29.833333333 , 40.666666666
Q27168,Randers,10.039166666 , 56.456944444
Q27174,Najran,44.1322 , 17.4917
Q27176,Al Bahah,41.45 , 20.0
Q27212,Thatta,67.924336111 , 24.746116666
Q27216,Siliana,9.374722222 , 36.081944444
Q27221,As Sulayyil,45.574444444 , 20.459722222
Q27222,Ras Tanura,50.1667 , 26.65
Q27225,Duba,35.6962 , 27.3493
Q27234,Safwa City,49.95 , 26.65
Q27241,Kelibia,11.1 , 36.85
Q27242,Al-`Ula,37.916666666 , 26.616666666
Q27359,Al Majma'ah,45.34555556 , 25.90388889
Q27393,Herning,8.966666666 , 56.133333333
Q27402,Pinya,96.0 , 21.86666667
Q27425,Hillerød,12.3 , 55.933333333
Q27430,Jubail,49.666666666 , 27.0
Q27435,Menzel Bourguiba,9.783333333 , 37.15
Q27452,Frederikshavn,10.536111111 , 57.433888888
Q27660,Jizan,42.55111 , 16.88917
Q27678,Holstebro,8.616666666 , 56.366666666
Q27858,Sorø,11.555555555 , 55.431388888
Q28031,Svendborg,10.61 , 55.059722222
Q28042,Holbæk,11.7103 , 55.7181
Q28115,New Salem,-101.411944444 , 46.843055555
Q28118,Almont,-101.506388888 , 46.727222222
Q28121,Alice,-97.555 , 46.762777777
Q28125,Flasher,-101.233055555 , 46.455
Q28131,Hebron,-102.043611111 , 46.901944444
Q28139,Reeder,-102.9425 , 46.106944444
Q28142,Bucyrus,-102.788888888 , 46.064444444
Q28158,Haynes,-102.471944444 , 45.973611111
Q28164,Glen Ullin,-101.830833333 , 46.814444444
Q28169,Alexander,-103.642777777 , 47.8425
Q28180,Jefferson City,-92.173611111 , 38.576666666
Q28198,Jackson,-90.184722222 , 32.298888888
Q28206,Augusta,-69.78 , 44.310555555
Q28218,Baton Rouge,-91.1 , 30.416666666
Q28237,Lansing,-84.5467 , 42.7335
Q28249,Concord,-71.538055555 , 43.206666666
Q28260,Lincoln,-96.680277777 , 40.810555555
Q28271,Annapolis,-76.501111111 , 38.973055555
Q28409,Kathryn,-97.970277777 , 46.679444444
Q28413,Nome,-97.812777777 , 46.677777777
Q28419,Mandan,-100.891111111 , 46.828888888
Q28420,Oriska,-97.789166666 , 46.931388888
Q28424,Dazey,-98.202222222 , 47.189166666
Q28441,São Luís,-44.302777777 , -2.53
Q28442,Leal,-98.316388888 , 47.105555555
Q28444,Hettinger,-102.633333333 , 46.000833333
Q28452,Fingal,-97.792777777 , 46.762222222
Q28475,Litchville,-98.190555555 , 46.653611111
Q28516,Tarnobrzeg,21.683333333 , 50.583333333
Q28587,Hamadan,48.516666666 , 34.8
Q28603,Frankfort,-84.863 , 38.197
Q28729,Kozhikode,75.766666666 , 11.25
Q28848,Saint Paul,-93.093611111 , 44.944166666
Q28911,Lahti,25.655555555 , 60.983333333
Q29042,Akureyri,-18.1 , 65.683333333
Q29303,Canterbury,1.0775 , 51.278333333
Q29364,Montgomery,-86.279166666 , 32.361666666
Q29585,Migues,-55.630555555 , -34.488055555
Q29644,Carbondale,-95.691666666 , 38.818333333
Q29689,Piedmont,-97.751944444 , 35.670833333
Q29868,Haderslev,9.5 , 55.25
Q29888,Aswan,32.899730555 , 24.088919444
Q29962,Asyut,31.171388888 , 27.186944444
Q29969,Kerteminde,10.666666666 , 55.45
Q30520,Bulayev,70.443888888 , 54.905555555
Q30616,Heredia,-84.116666666 , 9.996388888
Q30617,Cartago,-83.916666666 , 9.866666666
Q30620,Limón,-83.033333333 , 9.983333333
Q30651,Kadapa,78.816666666 , 14.466666666
Q30687,Puntarenas,-84.833888888 , 9.976388888
Q30771,Jalna,75.883333333 , 19.833333333
Q30833,Kivi,48.516667 , 37.616667
Q30901,Taft,54.204166666 , 31.7475
Q30916,Hurand,47.368611111 , 38.859166666
Q30951,Jalgaon,75.566666666 , 21.016666666
Q30963,Kingston,167.966666666 , -29.05
Q30970,Jamestown,-5.716666666 , -15.916666666
Q30985,Hamilton,-64.801388888 , 32.2975
Q30990,Plymouth,-62.215838888 , 16.706416666
Q30996,El Alto,-68.2 , -16.5
Q31084,Jever,7.900833333 , 53.574444444
Q31350,"Shibin Al Kawm, Al Minufiyah",31.0 , 30.55
Q31356,Mingora,72.366666666 , 34.783333333
Q31487,Kraków,19.95 , 50.066666666
Q31565,Jerash,35.891397222 , 32.272280555
Q31572,Al Karak,35.7 , 31.183333333
Q31594,Ar Ramtha,36.006944444 , 32.559166666
Q31616,Ma'an,35.733333333 , 30.193333333
Q31805,Invercargill,168.266666666 , -46.416666666
Q31990,San Saba,-98.725 , 31.1953
Q33147,Allen,-96.663055555 , 33.099722222
Q33264,Las Cruces,-106.765277777 , 32.319722222
Q33334,Sikar,75.139722222 , 27.611944444
Q33345,Yevpatoria,33.358333333 , 45.2
Q33377,Jalandhar,75.579166666 , 31.325555555
Q33412,Hubli,75.01638889 , 15.42444444
Q33414,Hospet,76.4 , 15.2667
Q33486,Hartford,-72.685 , 41.763333333
Q33518,Dover,-75.526666666 , 39.161944444
Q33532,Gandia,-0.182222222 , 38.966666666
Q33555,Rio Rancho,-106.670555555 , 35.286111111
Q33561,Roswell,-104.528055555 , 33.387222222
Q33581,Sloviansk,37.625 , 48.87
Q33613,Kramatorsk,37.555555555 , 48.720833333
Q33935,Tel Aviv,34.8 , 32.083333333
Q33959,Nice,7.268333333 , 43.701944444
Q33986,Valparaíso,-71.616361111 , -33.045944444
Q34106,Sarnia,-82.3089 , 42.9994
Q34109,Fargo,-96.789444444 , 46.877222222
Q34116,Thunder Bay,-89.2461 , 48.3822
Q34144,Grand Forks,-97.0325 , 47.925277777
Q34183,Barrie,-79.686 , 44.39
Q34218,Burlington,-79.8 , 43.325
Q34267,Międzyrzec Podlaski,22.8 , 51.983333
Q34370,Rotterdam,4.479166666 , 51.930833333
Q34404,New Orleans,-90.05 , 29.966666666
Q34647,Johannesburg,28.050277777 , -26.145
Q34692,Kingston,-76.8 , 17.983333333
Q34739,Dayton,-84.2 , 39.766666666
Q34804,Albuquerque,-106.616666666 , 35.116666666
Q34820,Santo Domingo,-69.893333333 , 18.476388888
Q34863,Oklahoma City,-97.5352 , 35.4823
Q34932,Brisbane,153.027777777 , -27.467777777
Q34986,Trinidad,-64.9 , -14.833333333
Q34995,Cobija,-68.733333333 , -11.033333333
Q35001,Lismore,153.283333333 , -28.816666666
Q35004,Tarija,-64.731111111 , -21.531666666
Q35045,Potosí,-65.75 , -19.583333333
Q35178,Kuwait City,47.98 , 29.375
Q35246,Oruro,-67.116666666 , -17.966666666
Q35362,Tajynsha,69.763888888 , 53.847777777
Q35381,Colombo,79.833333333 , 6.916666666
Q35493,Almaty,76.9 , 43.25
Q35775,Boise,-116.237777777 , 43.613611111
Q35784,Al Bayda,21.733333333 , 32.75
Q36036,Lviv,24.014166666 , 49.83
Q36168,Bridgetown,-59.608333333 , 13.096111111
Q36219,Brega,19.573888888 , 30.405833333
Q36260,Apia,-171.833333333 , -13.833333333
Q36281,Roseau,-61.383333333 , 15.3
Q36307,Salta,-65.410555555 , -24.788333333
Q36312,Calgary,-114.066666666 , 51.05
Q36378,Fribourg,7.15 , 46.8
Q36405,Aberdeen,-2.1 , 57.15
Q36526,Port Moresby,147.2 , -9.5
Q36529,Karaj,50.966666666 , 35.816666666
Q36647,Cork,-8.473055555 , 51.9
Q36716,Kmeti,13.574 , 45.449
Q36989,Pardubice,15.766666666 , 50.016666666
Q37013,Rauma,21.5 , 61.116666666
Q37043,Tallahassee,-84.280633333 , 30.438736111
Q37066,Bismarck,-100.778888888 , 46.813333333
Q37100,Auckland,174.783333333 , -36.85
Q37104,Alajuela,-84.216666666 , 10.016666666
Q37133,Mariupol,37.563888888 , 47.130555555
Q37320,Cleveland,-81.669722222 , 41.482222222
Q37333,Lublin,22.566666666 , 51.233333333
Q37701,Bloemfontein,26.216666666 , -29.1
Q37776,Besançon,6.021388888 , 47.242222222
Q37801,Bălți,27.928888888 , 47.761666666
Q37806,Port Vila,168.3 , -17.75
Q38022,St. Louis,-90.2 , 38.616666666
Q38511,Turku,22.27 , 60.451666666
Q38545,Adana,35.325 , 37.0
Q38733,Helena,-112.035 , 46.592777777
Q38807,Suva,178.433333333 , -18.133333333
Q38811,Nasiriyah,46.250277777 , 31.053888888
Q38834,Nuku'alofa,-175.208333333 , -21.134722222
Q38855,Gabane,25.782222222 , -24.666666666
Q38870,Kopong,25.892222222 , -24.468611111
Q38902,Thamaga,25.533333333 , -24.716666666
Q39121,Leeds,-1.549166666 , 53.799722222
Q39420,Sochi,39.720277777 , 43.585277777
Q39450,Anchorage,-149.899166666 , 61.218333333
Q39504,Ararat,44.714444444 , 39.809444444
Q39561,Burbank,-118.328333333 , 34.180277777
Q39578,Qormi,14.472222222 , 35.879444444
Q39709,Des Moines,-93.620833333 , 41.590833333
Q40104,Ajaccio,8.736388888 , 41.925555555
Q40191,Hobart,147.316666666 , -42.883333333
Q40236,Manaus,-60.016666666 , -3.1
Q40268,Springfield,-122.991111111 , 44.053055555
Q40269,Porto Alegre,-51.23 , -30.032777777
Q40325,Springfield,-83.804166666 , 39.926944444
Q40340,Racine,-87.805833333 , 42.726111111
Q40347,Norman,-97.418333333 , 35.221666666
Q40706,Paulínia,-47.154166666 , -22.761111111
Q40738,Bursa,29.066666666 , 40.183333333
Q40747,Pierre,-100.336378 , 44.367966
Q40811,Sukhumi,41.015277777 , 43.003333333
Q18780,Likasi,26.733333333 , -10.983333333
Q18808,Pyongyang,125.73 , 39.03
Q18998,Herborn,8.306111111 , 50.6825
Q19157,Pervouralsk,59.95 , 56.916666666
Q19300,Molfetta,16.6 , 41.2
Q19307,Çorovodë,20.227222222 , 40.504166666
Q19313,Barysau,28.5 , 54.233333333
Q19429,Petrovaradin,19.866666666 , 45.25
Q19520,Podolsk,37.544444444 , 55.429722222
Q19566,Simferopol,34.100039 , 44.948376
Q19583,Gori,44.110111111 , 41.981061111
Q20835,Hørsholm,12.499166666 , 55.878611111
Q20927,Daegu,128.6 , 35.866666666
Q21159,Husum,9.051111111 , 54.476944444
Q21176,Viborg,9.4 , 56.45
Q21178,Næstved,11.76666667 , 55.23333333
Q21179,Sønderborg,9.786666666 , 54.911388888
Q21180,Silkeborg,9.55 , 56.166666666
Q21181,Fredericia,9.759722222 , 55.564444444
Q21184,Køge,12.183333333 , 55.45
Q21185,Hjørring,9.986666666 , 57.46
Q21197,Chișinău,28.8575 , 47.005555555
Q21849,Sykeston,-99.398888888 , 47.464722222
Q22066,Águas de Santa Bárbara,-49.238888888 , -22.880833333
Q22595,Aurora,-88.298611111 , 41.76
Q22874,Wiesloch,8.698333333 , 49.294166666
Q22889,Bath,-2.358611 , 51.381389
Q22905,Bradford,-1.751 , 53.794
Q23007,Leimen,8.691111111 , 49.348055555
Q23021,Fort St. John,-120.846388888 , 56.2525
Q23041,Kudat,116.833333333 , 6.883333333
Q23044,San Rafael,-68.335555555 , -34.6175
Q23051,Swansea,-3.95 , 51.616666666
Q23070,Sneek,5.666666666 , 53.033333333
Q23116,Ladushkin,20.166666666 , 54.566666666
Q23154,Bristol,-2.583333333 , 51.45
Q23185,Mytishchi,37.733333333 , 55.916666666
Q23197,Nashville,-86.783888888 , 36.165
Q23311,City of London,-0.08901 , 51.51334
Q23337,Salt Lake City,-111.883333333 , 40.75
Q23436,Edinburgh,-3.198888888 , 55.95
Q23443,Provo,-111.660833333 , 40.244444444
Q23551,Mérida,-71.133333333 , 8.583333333
Q23556,Atlanta,-84.390277777 , 33.756944444
Q23564,Podgorica,19.266111111 , 42.439722222
Q23725,Byzantium,28.984722222 , 41.015277777
Q24149,Arabsiyo,43.7667 , 9.68333
Q24231,Nakskov,11.15 , 54.833333333
Q24335,Guadalupe,-120.573055555 , 34.965555555
Q24350,Independence,-93.699444444 , 45.0175
Q24639,Vancouver,-123.1 , 49.25
Q24826,Liverpool,-3.0 , 53.416666666
Q24861,Albany,-73.766666666 , 42.65
Q24879,Bremen,8.808888888 , 53.076944444
Q25302,Racibórz,18.233333333 , 50.083333333
Q25319,Aarhus,10.209722222 , 56.156388888
Q25330,Trenton,-74.756111111 , 40.221666666
Q25331,Odense,10.383333333 , 55.4
Q25390,Leeuwarden,5.783333333 , 53.2
Q25395,Newark,-74.185 , 40.735277777
Q25409,Košice,21.25 , 48.716666666
Q25410,Aalborg,9.916666666 , 57.05
Q25416,Stavanger,5.71 , 58.97
Q25607,St. Gallen,9.377222222 , 47.423333333
Q25659,Marjayoun,35.583333333 , 33.366666666
Q25797,Žilina,18.733333333 , 49.216666666
Q25804,Trondheim,10.4 , 63.44
Q25952,Maysky,44.066666666 , 43.633333333
Q26087,Tromsø,18.933333 , 69.666667
Q26101,Kasugai,136.966666666 , 35.25
Q26119,Prešov,21.233333333 , 49.0
Q26155,Jounieh,35.615555555 , 33.969722222
Q26175,Trnava,17.583333333 , 48.366666666
Q26234,Esbjerg,8.451388888 , 55.470833333
Q26339,Jersey City,-74.064722222 , 40.711388888
Q26393,Poprad,20.3 , 49.05
Q26397,Nitra,18.0875 , 48.314722222
Q26421,Dordrecht,4.67 , 51.81
Q26446,Whitefish,-114.34 , 48.4117
Q26461,Pegnitz,11.545 , 49.756388888
Q26483,Euless,-97.091666666 , 32.848333333
Q26485,Keller,-97.2361 , 32.9275
Q26487,Everman,-97.2842 , 32.6303
Q26488,Kennedale,-97.218055555 , 32.65
Q26489,North Richland Hills,-97.218055555 , 32.855555555
Q26492,Forest Hill,-97.2683 , 32.6633
Q26495,Lewisville,-97.0061 , 33.0383
Q26497,Hurst,-97.1803 , 32.8356
Q26500,Haltom City,-97.271666666 , 32.816111111
Q26525,Drammen,10.162778 , 59.735278
Q26563,Roskilde,12.080833333 , 55.641666666
Q26569,Zahlé,35.897777777 , 33.843055555
Q26793,Bergen,5.323333333 , 60.3925
Q26881,Helsingør,12.616666666 , 56.033333333
Q26906,Ciudad Bolívar,-63.55 , 8.116666666
Q27001,Martin,18.921388888 , 49.063611111
Q27062,Radès,10.283333333 , 36.766666666
Q15420,Granollers,2.288889 , 41.608333
Q15468,Badalona,2.233333333 , 41.433333333
Q15674,Kagoshima,130.557222222 , 31.596666666
Q15678,Cáceres,-6.371111111 , 39.473055555
Q15679,Badajoz,-6.97 , 38.88
Q15681,Jaén,-3.788888888 , 37.769722222
Q15682,Cádiz,-6.283333333 , 36.516666666
Q15684,Segovia,-4.116666666 , 40.95
Q15688,Ávila,-4.696222222 , 40.654347222
Q15695,Salamanca,-5.663888888 , 40.965
Q15696,Zamora,-5.755555555 , 41.498888888
Q15699,León,-5.566944444 , 42.598888888
Q15757,Suzdal,40.448888888 , 56.421111111
Q15758,Anapa,37.316666666 , 44.894444444
Q15759,Temryuk,37.383333333 , 45.266666666
Q15760,Novorossiysk,37.766666666 , 44.716666666
Q15762,Abinsk,38.166666666 , 44.866666666
Q15764,Apsheronsk,39.740555555 , 44.460833333
Q15767,Armavir,41.116666666 , 45.0
Q15774,Belorechensk,39.866666666 , 44.766666666
Q15775,Gelendzhik,38.076666666 , 44.560833333
Q15824,Tolitoli,120.818 , 1.03861
Q15853,Šempeter pri Gorici,13.637778 , 45.928333
Q15855,Bovec,13.55 , 46.333333333
Q15858,Brežice,15.592222222 , 45.904722222
Q15860,Cerknica,14.358092 , 45.796381
Q15861,Črnomelj,15.183333333 , 45.566666666
Q15865,Domžale,14.6 , 46.133333333
Q15867,Dravograd,15.022778 , 46.59
Q15868,Gornja Radgona,15.992606 , 46.675233
Q15870,Grosuplje,14.6562 , 45.955125
Q15871,Hrastnik,15.1 , 46.133333333
Q15875,Idrija,14.022108333 , 46.001316666
Q15876,Ilirska Bistrica,14.233333333 , 45.566666666
Q15877,Izola,13.6675 , 45.534444444
Q15883,Kamnik,14.611944444 , 46.225833333
Q15885,Kostanjevica na Krki,15.424869 , 45.846325
Q15886,Krško,15.492155555 , 45.958963888
Q15889,Lenart v Slovenskih goricah,15.830833333 , 46.575
Q15890,Lendava,16.45 , 46.566666666
Q15896,Metlika,15.314769 , 45.651081
Q15898,Mežica,14.853647 , 46.520581
Q15899,Murska Sobota,16.161944444 , 46.658611111
Q15901,Postojna,14.216666666 , 45.766666666
Q15905,Prevalje,14.98 , 46.54666667
Q15906,Ptuj,15.87018 , 46.42005
Q15908,Radeče,15.172872222 , 46.065936111
Q15911,Ravne na Koroškem,14.964233333 , 46.543736111
Q15914,Ruše,15.515277777 , 46.538333333
Q15915,Sevnica,15.303888888 , 46.009166666
Q15916,Sežana,13.85 , 45.7
Q15917,Slovenska Bistrica,15.570277777 , 46.389722222
Q15918,Slovenj Gradec,15.080555555 , 46.510277777
Q15919,Slovenske Konjice,15.423055555 , 46.338333333
Q15921,Šentjur,15.3975 , 46.21722
Q15922,Škofja Loka,14.3 , 46.166666666
Q15926,Trebnje,15.008627777 , 45.910377777
Q15928,Velenje,15.116666666 , 46.366666666
Q15930,Zagorje ob Savi,14.994166666 , 46.134166666
Q15976,Altenburg,12.433333333 , 50.985
Q15979,Kehl,7.808888888 , 48.571111111
Q15989,Uelzen,10.565833333 , 52.964722222
Q16017,Zweibrücken,7.360833333 , 49.249444444
Q16022,Barsinghausen,9.481111111 , 52.3
Q16033,Dietzenbach,8.775555555 , 50.008611111
Q16064,Fürstenwalde,14.066666666 , 52.366666666
Q16073,Itzehoe,9.516388888 , 53.925
Q16099,Lampertheim,8.467083333 , 49.594166666
Q16101,Braintree,-71.005 , 42.206
Q16102,Kornwestheim,9.185 , 48.859722222
Q16106,Eisenhüttenstadt,14.672777777 , 52.145
Q16116,Forchheim,11.058055555 , 49.719722222
Q16258,Maldonado,-54.958086111 , -34.908825
Q16461,Nanaimo,-123.936388888 , 49.164166666
Q16553,San Jose,-121.872777777 , 37.304166666
Q16554,Denver,-104.984722222 , 39.739166666
Q16555,Houston,-95.383055555 , 29.762777777
Q16556,Phoenix,-112.076388888 , 33.528333333
Q16557,Dallas,-96.7975 , 32.7825
Q16558,Fort Worth,-97.333055555 , 32.757222222
Q16559,Austin,-97.733333333 , 30.3
Q16562,El Paso,-106.423333333 , 31.790277777
Q16563,Memphis,-89.971111111 , 35.1175
Q16567,Columbus,-82.983333333 , 39.983333333
Q16568,Jacksonville,-81.65 , 30.316666666
Q16572,Guangzhou,113.258976 , 23.128795
Q16868,Laredo,-99.507222222 , 27.506111111
Q16869,Constantinople,28.976018 , 41.01224
Q16969,Gulkevichi,40.694527777 , 45.360277777
Q16971,Korenovsk,39.45 , 45.466666666
Q16973,Kropotkin,40.566666666 , 45.433333333
Q16978,Krymsk,38.0 , 44.933333333
Q16982,Kurganinsk,40.6 , 44.883333333
Q16985,Labinsk,40.733333333 , 44.633333333
Q40840,Tampere,23.760833333 , 61.498055555
Q40844,Breda,4.783333333 , 51.583333333
Q40921,Honiara,159.95 , -9.433333
Q41057,Topeka,-95.683333333 , 39.033333333
Q41087,Raleigh,-78.644722222 , 35.818888888
Q41128,Itanagar,93.62 , 27.1
Q41183,Aleppo,37.15 , 36.2
Q41211,San Juan,-66.066666666 , 18.45
Q41252,Bydgoszcz,18.0 , 53.116666666
Q41262,Nottingham,-1.149166666 , 52.955
Q41295,Basseterre,-62.734166666 , 17.298333333
Q41339,El Agheila,19.19833333 , 30.25666667
Q41473,Nizamabad,78.094 , 18.671997222
Q41496,Thanjavur,79.15 , 10.8
Q41538,South Dumdum,88.4 , 22.61
Q41547,St. George's,-61.741666666 , 12.044444444
Q41562,Thoothukudi,78.133333333 , 8.783333333
Q41572,Mykolaiv,32.0 , 46.966666666
Q41599,Świnoujście,14.25 , 53.916666666
Q41604,Amiens,2.297777777 , 49.891944444
Q41621,Haifa,34.983333333 , 32.8
Q41699,Castries,-60.983333333 , 14.016666666
Q41819,Kansas City,-94.583333333 , 39.05
Q41843,Beersheba,34.797777777 , 31.258888888
Q41876,Reims,4.028611111 , 49.265277777
Q41970,Pyatigorsk,43.05 , 44.033333
Q41993,Shelekhov,104.1 , 52.2
Q42053,Isfahan,51.679166666 , 32.651388888
Q42137,Iksan,126.954444444 , 35.943888888
Q42141,Jeongeup,126.856111111 , 35.565277777
Q42234,Buzuluk,52.266666666 , 52.766666666
Q42284,Esfarayen,57.51 , 37.076388888
Q42308,Kharkiv,36.229166666 , 50.0
Q42448,Sheffield,-1.471944444 , 53.3825
Q42462,York,-1.083333333 , 53.95
Q42678,Makeni,-12.044166666 , 8.881666666
Q42735,Olympia,-122.893055555 , 47.0425
Q42763,Santiago de los Caballeros,-70.7 , 19.45
Q42800,Belo Horizonte,-43.947777777 , -19.891666666
Q42810,Le Havre,0.108055555 , 49.494166666
Q42941,Agra,78.02 , 27.18
Q43070,Donetsk,37.804166666 , 48.008888888
Q43301,Fresno,-119.792222222 , 36.781666666
Q43382,Plymouth,-4.142222222 , 50.371388888
Q43387,Edirne,26.559444444 , 41.678055555
Q43418,Concepción,-75.312897 , -11.918521
Q43453,Plzeň,13.3825 , 49.741388888
Q43463,Fortaleza,-38.588888888 , -3.781388888
Q43475,Derby,-1.466666666 , 52.916666666
Q43509,Guayaquil,-79.883333333 , -2.183333333
Q43668,Louisville,-85.760277777 , 38.254166666
Q43788,Madison,-89.384444444 , 43.074722222
Q43919,Salem,-123.028888888 , 44.930833333
Q43981,Ketchikan,-131.673333333 , 55.35
Q43983,Wrangell,-132.381111111 , 56.469444444
Q44013,Vaughan,-79.5 , 43.833333333
Q44016,Markham,-79.25 , 43.8833
Q44059,La Plata,-57.95 , -34.933333333
Q44162,San Fernando del Valle de Catamarca,-65.779166666 , -28.468611111
Q44206,Resistencia,-58.986666666 , -27.451388888
Q44208,Rawson,-65.1 , -43.3
Q44210,Córdoba,-64.183333333 , -31.416666666
Q44211,Corrientes,-58.816666666 , -27.483333333
Q44213,Paraná,-60.5175 , -31.744444444
Q44214,Formosa,-58.175833333 , -26.184722222
Q44217,San Salvador de Jujuy,-65.299444444 , -24.185555555
Q44236,La Rioja,-66.855833333 , -29.413055555
Q44237,Mendoza,-68.833333333 , -32.883333333
Q44238,Posadas,-55.896944444 , -27.366666666
Q44240,Viedma,-63.0 , -40.8
Q44241,San Juan,-68.536388888 , -31.5375
Q44242,Río Gallegos,-69.233333333 , -51.633333333
Q44243,San Luis,-66.3525 , -33.277222222
Q44253,Santiago del Estero,-64.266944444 , -27.784444444
Q44254,Ushuaia,-68.304444444 , -54.807222222
Q44255,San Miguel de Tucumán,-65.216666666 , -26.816666666
Q44564,Charleston,-81.633333333 , 38.347222222
Q44948,Krnete,17.306388888 , 44.965833333
Q44950,Milosavci,17.366666666 , 44.916666666
Q44989,Tulsa,-95.937222222 , 36.131388888
Q45197,Świętochłowice,18.916666666 , 50.316666666
Q45301,Trabzon,39.733333333 , 41.0
Q45313,Herat,62.179180555 , 34.37385
Q45400,Port Arthur,-93.94 , 29.885
Q45604,Kandahar,65.705277777 , 31.607777777
Q46001,Alushta,34.397777777 , 44.667222222
Q46319,Sükhbaatar,106.206388888 , 50.236388888
Q46639,Mozdok,44.65 , 43.75
Q46702,Kavajë,19.55 , 41.183333333
Q46736,Ardon,44.283333333 , 43.166666666
Q46843,Auerbach,12.4 , 50.509444444
Q46940,Alcalá de Henares,-3.364305 , 40.481815
Q47034,Espoo,24.66 , 60.21
Q47048,Oulu,25.466666666 , 65.016666666
Q47138,Encarnación,-55.866666666 , -27.333333333
Q47164,Santa Monica,-118.481388888 , 34.021944444
Q47166,Orsk,58.616666666 , 51.2
Q47264,Hassan,76.1 , 13.0
Q57924,Lugau,12.746388888 , 50.738333333
Q58002,Zwönitz,12.813333333 , 50.630277777
Q58128,Bazargan,44.3875 , 39.391388888
Q58349,General Pico,-63.733333333 , -35.666666666
Q58462,Ra's Lanuf,18.415747 , 30.587238
Q58780,Hasselt,5.338497222 , 50.930480555
Q58794,Satna,80.83 , 24.16
Q58976,Piraeus,23.633333333 , 37.966666666
Q59018,Kakinada,82.216666666 , 16.933333333
Q59086,Suva Reka,20.821944444 , 42.38
Q59101,Narvik,17.56 , 68.420555555
Q59246,Nyazepetrovsk,59.6 , 56.05
Q59670,Columbia,-92.333888888 , 38.948333333
Q59698,Swakopmund,14.533333333 , -22.666666666
Q59704,Zelenogorsk,94.583333333 , 56.1
Q59828,Shebekino,36.9 , 50.416666666
Q59831,Stroitel,36.483333333 , 50.783333333
Q60005,Novy Oskol,37.866666666 , 50.766666666
Q60013,Korocha,37.2 , 50.816666666
Q60425,Meppel,6.191666666 , 52.703333333
Q60537,Napa,-122.3 , 38.3
Q60556,Rauenberg,8.703611111 , 49.267777777
Q60956,Ashkelon,34.566388888 , 31.665833333
Q61089,Malacca City,102.251111111 , 2.188888888
Q61301,Campeche,-90.525277777 , 19.848611111
Q61302,Chihuahua,-106.088888888 , 28.635277777
Q61394,Latur,76.583333333 , 18.4
Q61432,Brandon,-99.95 , 49.833333333
Q61445,Navi Mumbai,73.01 , 19.03
Q61455,Jonesboro,-90.7 , 35.833333333
Q61480,Ełk,22.35 , 53.816666666
Q61658,Ditzingen,9.066666666 , 48.826388888
Q61668,Remseck,9.276388888 , 48.868888888
Q61713,Niederstetten,9.918055555 , 49.400833333
Q61717,Lauda-Königshofen,9.703888888 , 49.568611111
Q61724,Tauberbischofsheim,9.662777777 , 49.6225
Q61835,Weikersheim,9.899166666 , 49.481666666
Q61928,Vaihingen an der Enz,8.956388888 , 48.932777777
Q61944,Semey,80.2275 , 50.411111111
Q62677,Karakorum,102.560555555 , 47.299166666
Q62868,Koszalin,16.181666666 , 54.190277777
Q62937,Pułtusk,21.083333333 , 52.7
Q63049,Abadan,48.283333333 , 30.35
Q63092,Carmona,-5.642222222 , 37.471111111
Q63154,Tagaytay,120.933333333 , 14.1
Q63233,Nasser,31.130555555 , 29.1475
Q64032,Uster,8.719166666 , 47.349166666
Q64044,Bellinzona,9.023809 , 46.195555
Q64679,Pratteln,7.694722222 , 47.516944444
Q66013,Głogów,16.080277777 , 51.658888888
Q66045,Hollywood,-85.965689 , 34.71696
Q66409,Good Hope,-86.867164 , 34.108777
Q66568,Kanpur,80.331111111 , 26.4725
Q66616,Indore,75.847222222 , 22.720555555
Q67410,Chelsea,-86.650845 , 33.329116
Q68115,Phil Campbell,-87.70642 , 34.35093
Q68124,La Chaux-de-Fonds,6.829558333 , 47.099627777
Q68136,Sion,7.366666666 , 46.233333333
Q68965,Solothurn,7.5375 , 47.208055555
Q68978,Thun,7.633055555 , 46.766388888
Q72125,Giugliano in Campania,14.19557 , 40.93188
Q72259,Portsmouth,-1.088888888 , 50.795277777
Q72360,Dmitriyev,35.075555555 , 52.128888888
Q72373,Zaozyorny,94.7 , 55.966666666
Q72380,Kurchatov,35.65 , 51.666666666
Q72536,Zheleznogorsk,35.366666666 , 52.333333333
Q72571,Shoshong,26.51666667 , -23.03333333
Q72656,Oboyan,36.263711111 , 51.20885
Q72704,Sudzha,35.270833333 , 51.190694444
Q73022,Sittard,5.866666666 , 51.0
Q73639,Pogradec,20.65 , 40.9
Q74052,Bade District,121.298783333 , 24.957619444
Q74176,Beit Hanoun,34.536277777 , 31.541452777
Q74195,Menlo Park,-122.178611111 , 37.454166666
Q74198,Trinidad,-104.5 , 37.166666666
Q75574,Salafchegan,50.45 , 34.483333
Q75621,Salamiyah,37.053055555 , 35.011111111
Q76493,Dzerzhinsk,43.45 , 56.233333333
Q76939,Bagh-e Bahadoran,51.188055555 , 32.377222222
Q78712,Rumia,18.4 , 54.566666666
Q79207,Stephens,-93.0683 , 33.415
Q79209,Lineville,-85.752576 , 33.312534
Q79210,Atkins,-92.9383 , 35.2436
Q79211,McCaskill,-93.6425 , 33.9175
Q79212,Ozark,-85.642009 , 31.448169
Q79213,Piedmont,-85.61306 , 33.92583
Q79214,Eutaw,-87.889166666 , 32.840555555
Q79215,Tallassee,-85.893061 , 32.539402
Q79219,Fultondale,-86.801293 , 33.615202
Q79221,Cherry Valley,-90.752777777 , 35.403611111
Q79222,Morrilton,-92.741944444 , 35.156388888
Q79223,Fifty-Six,-92.23 , 35.960555555
Q79224,Haskell,-92.638888888 , 34.512222222
Q79225,Fruithurst,-85.431759 , 33.731103
Q79226,Altus,-93.771944444 , 35.454722222
Q79227,Bethel Heights,-94.127777777 , 36.222777777
Q79230,Lakeview,-92.534722222 , 36.377222222
Q79232,Horatio,-94.353611111 , 33.939166666
Q79581,Bradley,-93.6575 , 33.098611111
Q79582,Marianna,-90.765 , 34.773888888
Q79584,Pell City,-86.273845 , 33.570907
Q79585,Westover,-86.5358 , 33.3494
Q79586,Nikolai,-154.375 , 63.0125
Q79588,Lincoln,-86.138879 , 33.593156
Q79589,Livingston,-88.188161 , 32.587332
Q79590,Hackett,-94.413055555 , 35.1875
Q79591,Holland,-92.280555555 , 35.157777777
Q79592,Jasper,-93.1856 , 36.0086
Q79594,Brinkley,-91.1917 , 34.8903
Q79595,East Brewton,-87.053174 , 31.092408
Q79596,Grannis,-94.3283 , 34.2389
Q79597,Leslie,-92.5578 , 35.8297
Q79599,Johnson,-94.165833333 , 36.133888888
Q79600,McNeil,-93.20806 , 33.34583
Q79601,Gassville,-92.49 , 36.283055555
Q79603,Orange Beach,-87.561985 , 30.291503
Q79606,Tuscumbia,-87.702854 , 34.730839
Q79607,Cordova,-145.702222222 , 60.539166666
Q79609,Prichard,-88.100384 , 30.748038
Q79610,Booneville,-93.921388888 , 35.139722222
Q79612,Cotter,-92.528333333 , 36.274722222
Q79613,Mansfield,-94.246388888 , 35.058888888
Q79614,Tanana,-152.077777777 , 65.170833333
Q79615,Earle,-90.464722222 , 35.270277777
Q79616,Tontitown,-94.246666666 , 36.179166666
Q79617,Goodwater,-86.052777777 , 33.059722222
Q79618,Plainview,-93.297777777 , 34.989444444
Q79619,Huntington,-94.264444444 , 35.080833333
Q79620,Brewton,-87.071164 , 31.117706
Q79621,Coal Hill,-93.672222222 , 35.436944444
Q79622,Marmaduke,-90.385555555 , 36.189444444
Q79623,Kibler,-94.236388888 , 35.425277777
Q79624,Evergreen,-86.954905 , 31.435025
Q79625,Elaine,-90.8542 , 34.3086
Q79626,Manila,-90.169444444 , 35.88
Q79627,Lewisville,-93.579444444 , 33.360555555
Q79628,Gentry,-94.484166666 , 36.266944444
Q79629,Wheatley,-91.108611111 , 34.914722222
Q79630,Jerome,-91.467777777 , 33.399166666
Q79631,Waldo,-93.294444444 , 33.351944444
Q79632,Wabbaseka,-91.794166666 , 34.36
Q79635,Glencoe,-85.935868 , 33.953148
Q79638,Fairbanks,-147.723055555 , 64.843611111
Q79640,Tarrant,-86.766219 , 33.587546
Q79642,McRae,-91.822777777 , 35.114166666
Q79643,Fairfield Bay,-92.264166666 , 35.601944444
Q79644,Havana,-93.529166666 , 35.111111111
Q79645,Crossett,-91.963333333 , 33.124722222
Q79646,Salem,-91.823888888 , 36.370555555
Q79647,Fulton,-93.8144 , 33.6119
Q79648,Eufaula,-85.153774 , 31.88937
Q79649,Cooper Landing,-149.794519 , 60.490529
Q79650,Centre,-85.674742 , 34.159181
Q79651,Bearden,-92.6175 , 33.7261
Q79652,Harrisburg,-90.7222 , 35.5642
Q79653,Fort Payne,-85.706648 , 34.453829
Q79654,Bridgeport,-85.718966 , 34.947303
Q79656,Madison,-90.726944444 , 35.013611111
Q79657,Hamburg,-91.798333333 , 33.2275
Q79658,Greenbrier,-92.389166666 , 35.229444444
Q79659,Clarkedale,-90.2361 , 35.3092
Q79660,Glenwood,-93.5483 , 34.3281
Q79661,Warren,-92.066666666 , 33.6125
Q79662,Gurdon,-93.1506 , 33.9167
Q79663,Alexander City,-85.936008 , 32.933157
Q79664,Sulligent,-88.13192 , 33.894807
Q79665,Mitchellville,-91.498333333 , 33.905277777
Q79666,Aliceville,-88.154427 , 33.126276
Q79667,Plumerville,-92.642777777 , 35.160833333
Q79668,Humphrey,-91.706111111 , 34.422777777
Q79669,Gulf Shores,-87.701468 , 30.267797
Q79670,Elkins,-94.028611111 , 36.019722222
Q79671,Heflin,-85.582701 , 33.643754
Q79672,Benson,-110.306666666 , 31.955555555
Q79673,Millbrook,-86.368611111 , 32.4975
Q79674,Ratcliff,-93.885555555 , 35.308333333
Q79675,Albertville,-86.2111 , 34.2653
Q79676,Helena-West Helena,-90.59 , 34.529166666
Q79677,Gambell,-171.701 , 63.7761
Q79678,Hughes,-90.470833333 , 34.949722222
Q79679,Gardendale,-86.811648 , 33.660492
Q79680,Hydaburg,-132.82083 , 55.20444
Q79681,Sherwood,-92.2114 , 34.8308
Q79682,Redfield,-92.183194444 , 34.445083333
Q79683,Atmore,-87.492067 , 31.023183
Q79684,Guin,-87.916711 , 33.973135
Q79685,Koyukuk,-157.704 , 64.8817
Q79687,Batesville,-91.641388888 , 35.773611111
Q79688,Jacksonville,-92.115277777 , 34.870277777
Q79689,Stebbins,-162.275 , 63.5119
Q79690,Junction City,-92.722777777 , 33.019166666
Q79691,Trussville,-86.596404 , 33.621623
Q79694,Malvern,-92.810833333 , 34.363888888
Q79695,Vestavia Hills,-86.778894 , 33.433057
Q79696,Van Buren,-94.346666666 , 35.444444444
Q79698,Brevig Mission,-166.493 , 65.3342
Q79699,Quitman,-92.218055555 , 35.381111111
Q115329,Camagüey,-77.918611111 , 21.378611111
Q115382,Bayamo,-76.642777777 , 20.381666666
Q115403,Manzanillo,-77.108611111 , 20.339722222
Q115465,Ciego de Ávila,-78.763055555 , 21.848055555
Q115481,Alpine,-111.773611111 , 40.456388888
Q115723,Lubań,15.3 , 51.116666666
Q115788,Langford,-123.506 , 48.4506
Q116115,Aran va Bidgol County,52.0 , 34.083333333
Q116156,Mariel,-82.753888888 , 22.993611111
Q116341,Korçë,20.766666666 , 40.616666666
Q117040,Santiago de Cuba,-75.820555555 , 20.028333333
Q117514,Pacific Grove,-121.921111111 , 36.619166666
Q117605,Cripple Creek,-105.179283 , 38.747294
Q117625,Yurimaguas,-76.083333333 , -5.9
Q118152,Meridian,-88.704166666 , 32.374722222
Q118910,Nemenčinė,25.475733333 , 54.675161111
Q119706,Southgate,-83.198055555 , 42.205277777
Q120299,Khadyzhensk,39.537222222 , 44.423888888
Q120641,Bitez,27.3803 , 37.0409
Q120740,Lubomierz,15.516666666 , 51.016666666
Q120783,Salem,-88.9482 , 38.6282
Q121157,Mashhad,59.604166666 , 36.306944444
Q121943,Crest Hill,-88.1086 , 41.5644
Q122563,Eau Claire,-91.492777777 , 44.814722222
Q122758,Błażowa,22.1 , 49.9
Q122803,Erzurum,41.275555555 , 39.909722222
Q123160,Nanyuki,37.066666666 , 0.016666666
Q123196,Sderot,34.593888888 , 31.526111111
Q123438,Bogatynia,14.966666666 , 50.916666666
Q123511,Grudziądz,18.776111111 , 53.4925
Q123709,Dundee,-2.97 , 56.464
Q124385,Miranshah,70.066666666 , 33.0
Q124669,Natanz,51.9 , 33.5
Q124739,Tijuana,-117.02 , 32.530833333
Q124919,Kiuruvesi,26.619444444 , 63.652777777
Q125080,Vaasa,21.616666666 , 63.1
Q125172,Dagestanskiye Ogni,48.2 , 42.116666666
Q125225,Wayne,-83.386388888 , 42.281388888
Q125293,Puebla City,-98.217777777 , 19.051388888
Q125434,Port Elizabeth,25.6 , -33.958055555
Q125733,St. Helena,-122.469722222 , 38.502777777
Q125924,Vinto,-66.313611111 , -17.397222222
Q125934,Mount Pleasant,-94.97 , 33.1578
Q126068,Howardville,-89.5989 , 36.5675
Q126084,Acre,35.083888888 , 32.926111111
Q126148,Tangier,-5.8125 , 35.784722222
Q126269,Wolverhampton,-2.125278 , 52.584167
Q126308,El Bayyada,21.2528 , 32.5619
Q126415,Kobanê,38.353611111 , 36.891027777
Q126758,Chernogorsk,91.283333333 , 53.816666666
Q126805,St. Catharines,-79.233333333 , 43.183333333
Q127041,Mangalore,74.880555555 , 12.870277777
Q127063,Kars,43.093055555 , 40.606944444
Q127506,Taunton,-71.090277777 , 41.9
Q127623,Vantaa,25.033333333 , 60.3
Q127856,Beverly Hills,-118.399444444 , 34.073055555
Q128112,DuPont,-122.6375 , 47.099166666
Q128133,Niagara Falls,-79.016944 , 43.093889
Q128139,Priverno,13.183333333 , 41.466666666
Q128147,Kingston upon Hull,-0.3325 , 53.744333
Q128228,Killeen,-97.726666666 , 31.105555555
Q128244,Waco,-97.155833333 , 31.551388888
Q128261,Carrollton,-96.893333333 , 32.99
Q128269,Frisco,-96.8131 , 33.1414
Q128282,Beaumont,-94.126666666 , 30.08
Q128295,Abilene,-99.745555555 , 32.446388888
Q128306,Denton,-97.133333333 , 33.216666666
Q128321,Midland,-102.09917 , 32.005
Q128334,Round Rock,-97.6725 , 30.515
Q128349,Wichita Falls,-98.515 , 33.896944444
Q128361,Odessa,-102.365555555 , 31.863333333
Q128375,Richardson,-96.715833333 , 32.965555555
Q128499,Yalta,34.155277777 , 44.499444444
Q128849,Nagano,138.192777777 , 36.648611111
Q128891,Lafayette,-92.033333333 , 30.216666666
Q129352,Stepanakert,46.751944444 , 39.815277777
Q129610,Galway,-9.0418 , 53.2729
Q129649,İzmit,29.941666666 , 40.763888888
Q129677,Chornobyl,30.216666666 , 51.266666666
Q129789,Girke Lege,41.95444444 , 37.01638889
Q129935,Herriman,-112.030833333 , 40.506666666
Q129941,Riverdale,-112.004166666 , 41.178611111
Q129946,Roosevelt,-109.994166666 , 40.298611111
Q129956,Harrisville,-111.986666666 , 41.285277777
Q129965,Riverton,-111.955277777 , 40.520555555
Q129969,Honeyville,-112.081944444 , 41.635555555
Q129976,Panguitch,-112.434722222 , 37.822222222
Q129980,Fillmore,-112.330833333 , 38.967777777
Q129989,Parowan,-112.831111111 , 37.841111111
Q129991,Richmond,-111.81 , 41.9194
Q129992,Morgan,-111.676111111 , 41.041111111
Q129993,Helper,-110.8575 , 39.694166666
Q129996,Hyrum,-111.847 , 41.6333
Q130069,Kanab,-112.531111111 , 37.035555555
Q130074,Castle Dale,-111.020833333 , 39.215833333
Q130090,Duchesne,-110.400555555 , 40.164444444
Q130134,Moab,-109.549722222 , 38.5725
Q130153,Nephi,-111.831388888 , 39.709166666
Q130158,Manti,-111.638888888 , 39.264722222
Q47430,Green Bay,-88.015833333 , 44.513333333
Q47483,Sagunto,-0.273333333 , 39.676388888
Q47492,Gaza City,34.45 , 31.516666666
Q47554,Toruń,18.616666666 , 53.016666666
Q47571,Lorca,-1.7 , 37.683333333
Q47716,Charleston,-79.9325 , 32.776111111
Q47772,San Carlos de Bariloche,-71.3 , -41.15
Q47837,Laayoune,-13.2 , 27.15
Q47952,Salford,-2.293055555 , 53.482777777
Q48194,Frýdek-Místek,18.353611111 , 49.688055555
Q48195,Basra,47.81 , 30.488888888
Q48215,Dover,-70.875 , 43.195277777
Q48274,Nashua,-71.464444444 , 42.7575
Q48285,Villa Carlos Paz,-64.516666666 , -31.4
Q48288,Jesús María,-64.1 , -30.983333333
Q48290,"Cosquín, Córdoba",-64.45 , -31.233333333
Q48292,Arles,4.628611111 , 43.676944444
Q48293,Alta Gracia,-64.433333333 , -31.666666666
Q48320,Kōbe,135.183 , 34.6913
Q48338,Kayseri,35.483333333 , 38.733333333
Q48370,Manchester,-71.463611111 , 42.990833333
Q48403,Amritsar,74.85 , 31.616666666
Q48472,Konye-Urgench,59.158611111 , 42.316666666
Q48562,Toropets,31.633333333 , 56.5
Q48778,Pillsbury,-97.794444444 , 47.206111111
Q48780,Rogers,-98.201111111 , 47.071944444
Q48789,Sanborn,-98.225277777 , 46.9425
Q48791,Tower City,-97.675 , 46.923333333
Q48809,Oak Ridge,-84.2625 , 36.013333333
Q48814,Strumica,22.643055555 , 41.4375
Q49012,San Luis Obispo,-120.663055555 , 35.274166666
Q49111,Cambridge,-71.106111111 , 42.375
Q49143,Quincy,-71.0 , 42.25
Q49145,New Haven,-72.925 , 41.308333333
Q49146,New London,-72.10104 , 41.354069
Q49147,New Bedford,-70.934722222 , 41.636111111
Q49156,Gloucester,-70.683333333 , 42.616666666
Q49158,Springfield,-72.547455 , 42.112411
Q49162,Lowell,-71.314722222 , 42.639444444
Q49163,Lawrence,-71.163611111 , 42.706944444
Q49169,Stamford,-73.552222222 , 41.096666666
Q49172,New Britain,-72.787222222 , 41.675
Q49178,Waterbury,-73.036944444 , 41.558333333
Q49179,Worcester,-71.8 , 42.266666666
Q49184,Pittsfield,-73.25 , 42.45
Q49188,Lynn,-70.95 , 42.466666666
Q49191,Portsmouth,-70.76075 , 43.07572
Q49192,Middletown,-72.651111111 , 41.562222222
Q49193,Brockton,-71.018888888 , 42.083333333
Q49194,Fall River,-71.155555555 , 41.701388888
Q49195,Warwick,-71.416666666 , 41.716666666
Q49197,Cranston,-71.441666666 , 41.783333333
Q49198,Danbury,-73.471111111 , 41.402222222
Q49200,Pawtucket,-71.376111111 , 41.875555555
Q49218,Rochester,-77.611388888 , 43.165555555
Q49219,Irvine,-117.7925 , 33.684166666
Q49220,Fremont,-121.982777777 , 37.543055555
Q49221,Scottsdale,-111.926111111 , 33.493055555
Q49225,Reno,-119.821944444 , 39.527222222
Q49227,Winston-Salem,-80.260555555 , 36.1025
Q49229,Durham,-78.907222 , 35.9875
Q49233,Orlando,-81.386666666 , 28.533611111
Q49238,Greensboro,-79.819444444 , 36.08
Q49240,Stockton,-121.300833333 , 37.975555555
Q49241,Lexington,-84.494722222 , 38.029722222
Q49242,Corpus Christi,-97.401944444 , 27.742777777
Q49243,Riverside,-117.396127777 , 33.948063888
Q49244,Santa Ana,-117.881388888 , 33.740833333
Q49246,Aurora,-104.808055555 , 39.695833333
Q49247,Anaheim,-117.889722222 , 33.836111111
Q49255,Tampa,-82.464722222 , 27.970833333
Q49256,Bakersfield,-119.018611111 , 35.405833333
Q49258,Colorado Springs,-104.791944444 , 38.863333333
Q49261,Mesa,-111.831388888 , 33.415
Q49266,Wichita,-97.336111111 , 37.688888888
Q49267,Henderson,-114.981388888 , 36.031666666
Q49268,Fort Wayne,-85.13915 , 41.08045
Q49270,Chula Vista,-117.048055555 , 32.627777777
Q49272,Chandler,-111.841388888 , 33.303333333
Q49273,Lubbock,-101.883333333 , 33.566666666
Q49274,Garland,-96.635 , 32.906944
Q49276,Hialeah,-80.293888888 , 25.860555555
Q49301,Crisfield,-75.852222222 , 37.984166666
Q49550,Maó-Mahón,4.264166666 , 39.889444444
Q49583,Olonets,32.966666666 , 60.983333333
Q49771,Mariinsk,87.75 , 56.216666666
Q50054,Garden Grove,-117.960278 , 33.778889
Q50816,Mississauga,-79.65 , 43.6
Q50968,Mosina,16.845 , 52.246666666
Q50973,Luboń,16.883333333 , 52.333333333
Q50978,Puszczykowo,16.854166666 , 52.281666666
Q50991,Swarzędz,17.071388888 , 52.408333333
Q50992,Pobiedziska,17.267111111 , 52.477916666
Q51003,Murowana Goślina,17.009722222 , 52.575833333
Q51103,Cali,-76.519722222 , 3.44
Q51408,Kórnik,17.098611111 , 52.236666666
Q51427,Szamotuły,16.583333333 , 52.6
Q51432,Gniezno,17.6 , 52.533333333
Q51434,Chodzież,16.912186111 , 52.990091666
Q57908,Jöhstadt,13.088611111 , 50.514444444
Q79465,Yellville,-92.6853 , 36.2297
Q79466,Lepanto,-90.335 , 35.6106
Q79467,Marvell,-90.91444 , 34.55667
Q79468,Arkadelphia,-93.066111111 , 34.121666666
Q79469,Cusseta,-85.305833333 , 32.784722222
Q79470,Dover,-93.1125 , 35.4006
Q79471,Taylor,-93.460833333 , 33.101944444
Q79472,Clay,-86.623032 , 33.700037
Q79473,Salesville,-92.275555555 , 36.244722222
Q79474,Anniston,-85.826664 , 33.663003
Q79475,Somerton,-114.712222222 , 32.597222222
Q79476,Semmes,-88.419166666 , 31.285555555
Q79477,Sylacauga,-86.251068 , 33.17836
Q79478,Corning,-90.5894 , 36.41
Q79479,Pelham,-86.78462 , 33.304581
Q79480,Citronelle,-88.244166666 , 31.0925
Q79481,Bay,-90.5628 , 35.7453
Q79482,Eudora,-91.262777777 , 33.114722222
Q79483,Augusta,-91.360833333 , 35.286388888
Q79484,Cullman,-86.8447 , 34.1775
Q79485,Wilmot,-91.573888888 , 33.059166666
Q79486,Thornton,-92.489722222 , 33.776666666
Q79487,Elba,-86.077442 , 31.417263
Q79488,Keiser,-90.096111111 , 35.674444444
Q79489,El Dorado,-92.6625 , 33.213611111
Q79490,Winchester,-91.476666666 , 33.772777777
Q79491,Palestine,-90.906111111 , 34.973611111
Q79492,LaFayette,-85.400784 , 32.898572
Q79493,Swifton,-91.128888888 , 35.824166666
Q79494,North Pole,-147.351944444 , 64.751111111
Q79495,Gould,-91.561666666 , 33.985833333
Q79496,Monroeville,-87.327543 , 31.518075
Q79497,Rogers,-94.141388888 , 36.329444444
Q79498,Mountain View,-92.108611111 , 35.865
Q79499,Helena,-86.85606 , 33.279715
Q79500,Norphlet,-92.663888888 , 33.317777777
Q79501,Prairie Grove,-94.316111111 , 35.976944444
Q79502,Fairhope,-87.895687 , 30.526394
Q79504,Mountain Pine,-93.172777777 , 34.5725
Q79505,Bull Shoals,-92.585555555 , 36.380833333
Q79506,Norfork,-92.281666666 , 36.209444444
Q79507,Holy Cross,-159.770833333 , 62.198611111
Q79508,Carlisle,-91.74652 , 34.78315
Q79509,Prattville,-86.451305 , 32.459135
Q79510,Gillett,-91.380277777 , 34.119166666
Q79511,Perrytown,-93.5353 , 33.6986
Q79512,Wrightsville,-92.2172 , 34.6106
Q79513,Savoonga,-170.461 , 63.6967
Q79514,False Pass,-163.39909 , 54.827886
Q79515,Marshall,-92.63611 , 35.90972
Q79516,Perryville,-92.8031 , 35.0058
Q79517,Mammoth Spring,-91.543611111 , 36.493333333
Q79518,Ozan,-93.7214 , 33.8489
Q79519,Dothan,-85.407222222 , 31.227222222
Q79520,Emmet,-93.4714 , 33.7264
Q79521,Warrior,-86.811455 , 33.813607
Q79522,Reform,-88.015022 , 33.380835
Q79523,Cold Bay,-162.714298 , 55.209038
Q79524,Gravette,-94.4525 , 36.42
Q79525,Hoonah,-135.436347222 , 58.109436111
Q79526,Dardanelle,-93.160277777 , 35.2225
Q79527,Clarendon,-91.308333333 , 34.694166666
Q79528,Kasaan,-132.402 , 55.5417
Q79530,Chignik,-158.404444444 , 56.298333333
Q79532,Magazine,-93.807777777 , 35.151666666
Q79533,Kake,-133.933888888 , 56.970833333
Q79537,Black Rock,-91.0989 , 36.1078
Q79538,Kachemak,-151.433 , 59.6733
Q79539,Columbiana,-86.609365 , 33.183545
Q79540,Aniak,-159.550255 , 61.578821
Q79541,New Stuyahok,-157.312106 , 59.45185
Q79542,Pleasant Grove,-86.973055555 , 33.4925
Q79543,Goodnews Bay,-161.585835 , 59.121408
Q79545,Nunam Iqua,-164.895277777 , 62.516111111
Q79547,Newhalen,-154.894 , 59.7256
Q79548,Maumelle,-92.406666666 , 34.853611111
Q79549,Montevallo,-86.862817 , 33.104927
Q79550,Marshall,-162.085 , 61.8781
Q79551,Grayling,-160.063888888 , 62.904166666
Q79552,Satsuma,-88.054415 , 30.854518
Q79553,Emmonak,-164.545 , 62.7772
Q79555,Weaver,-85.808541 , 33.755701
Q79556,Guntersville,-86.294523 , 34.348197
Q79557,Elim,-162.25667 , 64.6175
Q79558,Mountain Village,-163.724 , 62.09
Q79559,Old Harbor,-153.307777777 , 57.197222222
Q79560,Akhiok,-154.170277777 , 56.944444444
Q79561,Kotlik,-163.56 , 63.0358
Q79562,Magnolia,-93.23333 , 33.27389
Q79563,Stevenson,-85.831829 , 34.869442
Q79565,Nightmute,-164.826 , 60.4914
Q79567,Mena,-94.239166666 , 34.582222222
Q79568,Sheffield,-87.694592 , 34.759721
Q79570,Carbon Hill,-87.524307 , 33.89069
Q79571,Hanceville,-86.760908 , 34.063463
Q79572,Chuathbaluk,-159.247311 , 61.575693
Q79573,Anvik,-160.209 , 62.6556
Q79574,McGrath,-155.588888888 , 62.95
Q80184,Blevins,-93.5767 , 33.8711
Q80185,Oakhaven,-93.6194 , 33.7294
Q80186,Huntsville,-93.735 , 36.089722222
Q80187,Horseshoe Bend,-91.744444444 , 36.224444444
Q80189,Chidester,-93.022222222 , 33.702777777
Q80196,Mineral Springs,-93.918611111 , 33.876388888
Q80197,Amity,-93.46389 , 34.26611
Q80202,Huttig,-92.183888888 , 33.038888888
Q80314,Harrison,-93.113611111 , 36.237222222
Q80484,Patna,85.141388888 , 25.61
Q80517,Shreveport,-93.7629569 , 32.5082078
Q80561,Antakya,36.15 , 36.2
Q80810,Meymeh,51.168055555 , 33.446111111
Q80812,Varnamkhast,51.378611111 , 32.356388888
Q80814,Talkhooncheh,51.562222222 , 32.262777777
Q80815,Vanak,51.325556 , 31.5275
Q80816,Fuladshahr,51.421111111 , 32.490555555
Q80818,Badrud,52.006388888 , 33.691666666
Q80820,Vazvan,51.179722 , 33.416667
Q80821,Hana,51.724722222 , 31.198888888
Q80822,Manzariyeh,51.871944444 , 31.945833333
Q80824,Goldasht,51.439166666 , 32.626666666
Q80825,Gaz,51.620833333 , 32.802222222
Q80828,Zayandeh Rud,51.293611111 , 32.392777777
Q80830,Zibashahr,51.566944444 , 32.383333333
Q80859,Wentzville,-90.857222222 , 38.816111111
Q80983,Neqab,57.42138889 , 36.70805556
Q80985,Fes,-5.001944444 , 34.044166666
Q81012,Hemsbach,8.656388888 , 49.590277777
Q81015,Komeh,51.59277778 , 31.06833333
Q81019,Chamgardan,51.340833333 , 32.393333333
Q81020,Kahriz Sang,51.480833333 , 32.626666666
Q81021,Chermahin,51.195833333 , 32.3375
Q81024,Rezvanshahr,51.10388889 , 32.70555556
Q81027,Jowzdan,51.3725 , 32.556666666
Q81028,Sedeh Lenjan,51.318055555 , 32.377777777
Q81029,Dizicheh,51.514722222 , 32.383333333
Q81030,Khaledabad,51.977777777 , 33.705833333
Q81033,Monterrey,-100.308611111 , 25.671388888
Q81046,Charleroi,4.444166666 , 50.416666666
Q81137,Olomouc,17.260277777 , 49.596111111
Q81234,Karkevand,51.446944444 , 32.345
Q81398,Acapulco,-99.8870087 , 16.8628695
Q81440,Mobarakeh,51.504444444 , 32.346388888
Q81444,Boshruyeh,57.428888888 , 33.868333333
Q81448,Arianshahr,59.23305556 , 33.33166667
Q81561,El Calafate,-72.264926 , -50.339549
Q81562,Pico Truncado,-67.966666666 , -46.8
Q81581,Szeged,20.166666666 , 46.25
Q81656,Esquel,-71.316666666 , -42.9
Q81788,Giza,31.21 , 30.01
Q81824,Hillsboro,-122.988333333 , 45.523055555
Q81856,Beaverton,-122.803611111 , 45.486944444
Q81882,Santos,-46.333888888 , -23.960833333
Q82030,Villarrobledo,-2.6 , 39.266666666
Q82053,Pfullingen,9.226111111 , 48.465555555
Q82070,Tyre,35.2 , 33.266666666
Q82285,Trochtelfingen,9.244444444 , 48.308055555
Q82362,Neckarbischofsheim,8.960555555 , 49.2925
Q82366,Schönau,8.809166666 , 49.435555555
Q82453,Hayingen,9.478055555 , 48.275277777
Q82690,Horb am Neckar,8.691111111 , 48.445
Q82741,Winnenden,9.397777777 , 48.876388888
Q82765,Olsztyn,20.483333333 , 53.783333333
Q82838,Freudenstadt,8.411111111 , 48.463333333
Q82881,Metzingen,9.285833333 , 48.536666666
Q82886,Schramberg,8.384166666 , 48.226944444
Q82911,Weinstadt,9.365555555 , 48.811111111
Q82927,Neckargemünd,8.7975 , 49.393888888
Q82960,Rottweil,8.624722222 , 48.168055555
Q83061,Van,43.416666666 , 38.501944444
Q83065,Leicester,-1.133333333 , 52.633333333
Q83178,Almere,5.225555555 , 52.375833333
Q83189,Goiânia,-49.253888888 , -16.678888888
Q83206,Oberndorf am Neckar,8.5725 , 48.291388888
Q83285,Durrës,19.455833333 , 41.324166666
Q83317,Mosul,43.116666666 , 36.366666666
Q83339,Volchansk,60.05 , 59.933333333
Q83387,Diyarbakır,40.236666666 , 37.910833333
Q83407,Mons,3.951944444 , 50.454722222
Q83531,Bitlis,42.116666666 , 38.4
Q83621,Ilansky,96.066666666 , 56.233333333
Q83686,Zohan,59.797777777 , 33.413888888
Q83699,Mud,59.525555555 , 32.708888888
Q83700,Nimbeluk,58.93111111 , 33.91083333
Q83735,"Hajjiabad, South Khorasan",59.99333333 , 33.605
Q83736,Khezri Dasht Beyaz,58.81277778 , 34.02277778
Q83762,Ayask,58.3825 , 33.8875
Q83786,Shimla,77.172222222 , 31.103333333
Q83813,Savannah,-81.103888888 , 32.050833333
Q83845,Orange Cove,-119.313611111 , 36.624444444
Q83876,Esfeden,59.77805556 , 33.645
Q92161,Changchun,125.2 , 43.9
Q92212,Opole,17.933333333 , 50.666666666
Q92689,Sopot,18.55 , 54.433333333
Q93230,Rawalpindi,73.033333333 , 33.6
Q93323,Chrzanów,19.4 , 50.133333333
Q93338,Gaziantep,37.383333333 , 37.066666666
Q93340,Sugar Land,-95.614166666 , 29.599444444
Q159124,Michurinsk,40.492777777 , 52.892222222
Q167301,Letlhakane,25.316111111 , -21.416666666
Q167551,Gitega,29.930555555 , -3.426388888
Q167582,Yokneam Illit,35.11 , 32.659444444
Q167594,Tira,34.950277777 , 32.232777777
Q167617,Rahat,34.754444444 , 31.3925
Q167632,Ofakim,34.616666666 , 31.283333333
Q167649,Netivot,34.583333333 , 31.416666666
Q167659,Nazareth Illit,35.333333333 , 32.716666666
Q167677,Yavne,34.733333333 , 31.883333333
Q167715,Thiruvananthapuram,76.899722222 , 8.5
Q167731,Zawadzkie,18.48 , 50.609444444
Q167744,Gryfice,15.216666666 , 53.9
Q167749,Nahariya,35.0925 , 33.003611111
Q167756,Zawidów,15.066666666 , 51.016666666
Q167800,Zakho,42.681911111 , 37.143611111
Q167839,Čakovec,16.433333333 , 46.383333333
Q167974,Táriba,-72.216666666 , 7.816666666
Q168056,Bandar Siraf,52.3425 , 27.666666666
Q168088,Orlov,48.883333333 , 58.533333333
Q168140,Modi'in Illit,35.041666666 , 31.930555555
Q168162,Ness Ziona,34.8 , 31.933333333
Q168176,Tamra,35.207108333 , 32.851147222
Q168193,An Najaf,44.339621 , 32.028951
Q168197,Adıyaman,38.277777777 , 37.763888888
Q168202,Rosh HaAyin,34.95 , 32.083333333
Q168215,Tirat Carmel,34.966666666 , 32.766666666
Q168225,Hebron,35.098611111 , 31.535
Q168245,Umm al-Fahm,35.1525 , 32.515833333
Q168330,Sakhnin,35.3 , 32.866666666
Q168337,Migdal HaEmek,35.244444444 , 32.678611111
Q168420,Rugby,-99.996111111 , 48.367222222
Q168668,Dobrich,27.833333333 , 43.566666666
Q168782,Tobolsk,68.258055555 , 58.195277777
Q168824,Kandé,1.046388888 , 9.956388888
Q168843,Sari,53.059722222 , 36.565833333
Q168866,Eskişehir,30.520555555 , 39.776666666
Q168884,Asotin,-117.046388888 , 46.338888888
Q168888,Maceió,-35.735 , -9.665833333
Q168902,Zbąszynek,15.816666666 , 52.25
Q168905,Zbąszyń,15.917777777 , 52.253055555
Q168954,Tripoli,35.833333333 , 34.433333333
Q168965,Moa,-74.9175 , 20.639722222
Q169134,Nara,135.783333333 , 34.683333333
Q169224,Zduny,17.366666666 , 51.633333333
Q169237,Zduńska Wola,18.966666666 , 51.6
Q169310,Ariel,35.187777777 , 32.106111111
Q169334,Termas de Río Hondo,-64.866666666 , -27.483333333
Q169460,Miletus,27.275556 , 37.531111
Q169530,Zebulon,-84.3422 , 33.0989
Q169943,San Mateo,-122.313055555 , 37.554166666
Q169948,Yuba City,-121.626111111 , 39.134722222
Q170047,Samarra,43.866666666 , 34.2
Q170115,Srinagar,74.806111111 , 34.091111111
Q170244,Berat,19.949673 , 40.704939
Q170263,Chester,-2.883333333 , 53.2
Q170301,Mühlberg/Elbe,13.216666666 , 51.433055555
Q170315,Abbottabad,73.216666666 , 34.15
Q170366,Ahvaz,48.669166666 , 31.320277777
Q170415,Stara Zagora,25.625555555 , 42.424722222
Q170433,Passaic,-74.128888888 , 40.8575
Q170456,Pripyat,30.05 , 51.4
Q170457,Aydın,27.845277777 , 37.848055555
Q170497,Gloucester,-2.243333333 , 51.881111111
Q170513,Taganrog,38.9 , 47.233333333
Q170532,Amasya,35.833333333 , 40.65
Q170540,Taubaté,-45.55 , -23.033333333
Q170573,Qom,50.878888888 , 34.646111111
Q170642,Hukuntsi,21.78 , -23.998888888
Q170660,Moshupa,25.418333333 , -24.779166666
Q170663,Shakawe,21.845833333 , -18.369166666
Q170668,Gumare,22.161666666 , -19.369166666
Q170688,Santa Cruz,-63.1975 , -17.789166666
Q170693,Keflavík,-22.581944444 , 64.0
Q170698,Tutume,27.05 , -20.51
Q170711,Palapye,27.133333333 , -22.55
Q170714,Ramotswa,25.816666666 , -24.866666666
Q170715,Kasane,25.153611111 , -17.798333333
Q170717,Mogoditshane,25.866666666 , -24.633333333
Q170724,Mahalapye,26.8142 , -23.1041
Q170725,Molepolole,25.4951 , -24.4066
Q170727,Tshabong,22.405555555 , -26.02
Q170730,Kanye,25.35 , -24.983333333
Q170732,Maun,23.416666666 , -19.983333333
Q170755,Mathangwane,27.336944444 , -20.995555555
Q170816,Maitengwe,27.209722222 , -20.128888888
Q170872,"Good Hope, Botswana",25.4392 , -25.4671
Q170919,Pattaya,100.871944444 , 12.923055555
Q170967,Denizli,29.087777777 , 37.773055555
Q171012,Q171012,22.2931 , -19.1272
Q171018,Zlín,17.666944444 , 49.233055555
Q171031,Isparta,30.55 , 37.766666666
Q171032,Mabeleapudi,26.8331 , -22.2136
Q171065,Q171065,25.458611 , -25.086139
Q171080,Kotor,18.771191 , 42.42539
Q171101,Q171101,27.219975 , -22.665208
Q171223,Nyíregyháza,21.716666666 , 47.95
Q171353,Esztergom,18.740277777 , 47.785555555
Q79577,Scottsboro,-86.04257 , 34.651368
Q79580,Tuscaloosa,-87.534722222 , 33.206666666
Q51438,Czarnków,16.566666666 , 52.9
Q51441,Czempiń,16.760555555 , 52.145
Q51599,Punta Arenas,-70.916666666 , -53.15
Q51678,Pago Pago,-170.702777777 , -14.273055555
Q51681,Charlotte Amalie,-64.95 , 18.35
Q51682,Glendale,-112.2 , 33.583333333
Q51685,Tempe,-111.943055555 , 33.429444444
Q51686,Peoria,-112.238611111 , 33.5825
Q51687,Surprise,-112.367797222 , 33.629194444
Q51689,Plano,-96.75 , 33.05
Q51690,Irving,-96.950833333 , 32.811666666
Q51691,Amarillo,-101.845277777 , 35.199166666
Q51693,Brownsville,-97.484444444 , 25.930277777
Q51694,Grand Prairie,-97.016944 , 32.715278
Q51695,Pasadena,-95.173888888 , 29.676111111
Q51696,Mesquite,-96.60972 , 32.78278
Q51697,McKinney,-96.633333333 , 33.2
Q51698,McAllen,-98.236388888 , 26.216388888
Q51878,San Vito dei Normanni,17.703611111 , 40.655555555
Q51973,Scranton,-95.7381 , 38.7794
Q52101,Middelburg,3.613611111 , 51.499722222
Q52465,West Valley City,-111.993888888 , 40.689166666
Q52466,West Jordan,-111.976111111 , 40.606388888
Q52467,South Jordan,-111.960833333 , 40.561666666
Q52468,Orem,-111.696486 , 40.298753
Q52470,Sandy,-111.859722222 , 40.5725
Q52471,Ogden,-111.961111111 , 41.227777777
Q52472,St. George,-113.578055555 , 37.095277777
Q52474,Layton,-111.955277777 , 41.078055555
Q52475,Taylorsville,-111.949444444 , 40.655
Q52506,General Roca,-67.583333333 , -39.033333333
Q52535,Rosario,-60.65 , -32.95
Q52578,Concordia,-58.016944444 , -31.392222222
Q52585,Gualeguaychú,-58.511111111 , -33.007777777
Q52591,Colón,-58.133333333 , -32.216666666
Q52602,Gualeguay,-59.31666667 , -33.15
Q52828,Gołańcz,17.301388888 , 52.948333333
Q52829,Grodzisk Wielkopolski,16.366666666 , 52.233333333
Q52840,Jarocin,17.5 , 51.966666666
Q52842,Kalisz,18.08 , 51.7575
Q52845,Konin,18.266666666 , 52.216666666
Q52850,Kostrzyn,17.222111111 , 52.394138888
Q52853,Koło,18.633333333 , 52.2
Q52889,Kościan,16.65 , 52.083333333
Q52892,Leszno,16.566666666 , 51.85
Q52893,Nowy Tomyśl,16.133333333 , 52.316666666
Q52894,Obrzycko,16.529166666 , 52.706388888
Q52895,Ostrów Wielkopolski,17.7 , 51.65
Q52896,Pniewy,16.266666666 , 52.516666666
Q52898,Rawicz,16.8575 , 51.609166666
Q52900,Wronki,16.383333333 , 52.7
Q52902,Września,17.583333333 , 52.333333333
Q52903,Środa Wielkopolska,17.283333333 , 52.233333333
Q52996,Marshall,-94.366666666 , 32.55
Q53139,Chita,113.5 , 52.033333333
Q54108,Bahía Blanca,-62.2 , -38.75
Q54118,Azul,-59.85 , -36.78333333
Q54119,San Pedro,-59.666944444 , -33.679444444
Q54134,Newburyport,-70.877222222 , 42.8125
Q54136,Peabody,-70.929166666 , 42.527777777
Q54138,Beverly,-70.88 , 42.558333333
Q54140,Salem,-70.898503 , 42.516845
Q54143,Melrose,-71.066666666 , 42.458333333
Q54149,Malden,-71.066666666 , 42.425
Q54151,Everett,-71.054166666 , 42.408333333
Q54154,Revere,-71.0125 , 42.408333333
Q54156,Chelsea,-71.033333333 , 42.391666666
Q54170,Winthrop,-70.983333333 , 42.375
Q54172,Watertown,-71.183333333 , 42.370833333
Q54174,Woburn,-71.152777777 , 42.479166666
Q54176,Amesbury,-70.930555555 , 42.858333333
Q54179,Methuen,-71.191388888 , 42.726111111
Q54182,Fitchburg,-71.802777777 , 42.583333333
Q54185,Leominster,-71.760277777 , 42.525
Q54189,Marlborough,-71.552777777 , 42.345833333
Q54191,Randolph,-71.041666666 , 42.1625
Q54195,Weymouth,-70.940277777 , 42.220833333
Q54217,Norwalk,-73.419722222 , 41.093888888
Q54219,West Haven,-72.967777777 , 41.273888888
Q54220,Meriden,-72.794722222 , 41.536666666
Q54264,Newport,-71.312622 , 41.488002
Q54268,East Providence,-71.37 , 41.813611111
Q54273,Central Falls,-71.3925 , 41.89
Q54452,Kumanovo,21.713611111 , 42.140277777
Q54764,Västervik,16.638055555 , 57.755555555
Q54880,Valencia,-68.0 , 10.166666666
Q54886,Cuenca,-79.005261111 , -2.902222222
Q54898,San Cristóbal de La Laguna,-16.32 , 28.48
Q55377,Oberá,-55.133333333 , -27.483333333
Q55378,Puerto Iguazú,-54.580277777 , -25.610833333
Q55385,Palpalá,-65.208333333 , -24.258333333
Q55855,"Bella Vista, Corrientes",-59.05 , -28.466666666
Q55862,Goya,-59.25 , -29.133333333
Q56064,Colonia del Sacramento,-57.844166666 , -34.471388888
Q56135,San Antonio,-71.616666666 , -33.6
Q56137,"San Carlos, Chile",-71.966666666 , -36.416666666
Q181578,Qazvin,50.0 , 36.266666666
Q181632,Vileyka,26.916666666 , 54.483333333
Q181830,Shumen,26.924444444 , 43.27
Q181854,Lappeenranta,28.186111111 , 61.058333333
Q181884,"Robinson, North Dakota",-99.779166666 , 47.143055555
Q181962,Augusta,-81.975 , 33.47
Q181966,Naha,127.678888888 , 26.212222222
Q182009,Tekirdağ,27.516666666 , 40.983333333
Q182025,Aksaray,34.033333333 , 38.366666666
Q182059,Kumasi,-1.616666666 , 6.683333333
Q182092,Tobruk,23.95 , 32.083333333
Q182131,Betzenstein,11.4175 , 49.680277777
Q182299,Chania,24.016666666 , 35.516666666
Q182394,Yazd,54.367777777 , 31.897222222
Q182428,Silistra,27.260277777 , 44.118611111
Q182521,Rustavi,45.0 , 41.533333333
Q182623,New Rockford,-99.136111111 , 47.680555555
Q182625,Windsor,-83.034722 , 42.318333
Q182640,Ta'if,40.416666666 , 21.266666666
Q182871,Polevskoy,60.183333333 , 56.45
Q182877,Greenfield,-87.995833333 , 42.963055555
Q182892,Polessk,21.1 , 54.866666666
Q182906,Polysayevo,86.283333333 , 54.6
Q182918,Polyarnye Zori,32.498055555 , 67.365833333
Q182923,Stirling,-3.935833333 , 56.119444444
Q182935,Polyarny,33.456111111 , 69.198333333
Q182979,Rahden,8.616666666 , 52.416666666
Q183002,Surgut,73.433333333 , 61.25
Q183093,Poronaysk,143.1 , 49.216666666
Q183104,Feldkirch,9.598333333 , 47.238055555
Q183106,Porkhov,29.55 , 57.766666666
Q183145,Pochep,33.45 , 52.933333333
Q183162,Pochinok,32.45 , 54.4
Q183183,Poshekhonye,39.116666666 , 58.5
Q183193,Pravdinsk,21.016666666 , 54.45
Q183208,Privolzhsk,41.283333333 , 57.383333333
Q183223,Primorsk,20.0 , 54.733333333
Q183298,Ibadan,3.916666666 , 7.396388888
Q183303,Jalalabad,70.452777777 , 34.430277777
Q183405,Safi,-9.233333333 , 32.283333333
Q183551,Waterford,-7.119 , 52.2583
Q183651,Tokat,36.554166666 , 40.309722222
Q184090,Preston,-2.698055555 , 53.759444444
Q184095,Primorsko-Akhtarsk,38.183333333 , 46.05
Q184116,Gary,-87.345555555 , 41.580833333
Q184147,Prokopyevsk,86.716666666 , 53.883333333
Q184184,Nouadhibou,-17.033333333 , 20.95
Q184185,Proletarsk,41.719166666 , 46.703055555
Q184193,Protvino,37.216666666 , 54.866666666
Q184200,Prokhladny,44.033333333 , 43.75
Q184220,Pugachyov,48.8 , 52.016666666
Q184225,Pudozh,36.533333333 , 61.8
Q184242,Pustoshka,29.366666666 , 56.333333333
Q184258,Puchezh,43.166666666 , 56.983333333
Q184322,Pushkino,37.85 , 56.016666666
Q184345,Viña del Mar,-71.533333333 , -33.033333333
Q184346,Pushchino,37.616666666 , 54.833333333
Q184361,Pytalovo,27.916666666 , 57.066666666
Q184391,Pyt-Yakh,72.783333333 , 60.75
Q184403,São Bernardo do Campo,-46.565 , -23.693888888
Q184409,Guarulhos,-46.533333333 , -23.466666666
Q184459,Zeghanghane,-3.021188888 , 35.1505
Q184481,Zehdenick,13.333055555 , 52.983055555
Q184537,Raduzhny,40.329722222 , 55.997777777
Q184539,Ordu,37.883333333 , 40.983333333
Q184562,Raduzhny,77.466666666 , 62.133333333
Q184587,Grand Rapids,-85.655719444 , 42.96125
Q184617,Raychikhinsk,129.4 , 49.8
Q184864,Megara,23.333333333 , 38.0
Q185084,Siirt,41.945833333 , 37.841666666
Q185114,Targovishte,26.571944444 , 43.246666666
Q185134,Tlemcen,-1.316666666 , 34.882777777
Q185156,Guantánamo,-75.206111 , 20.138333
Q185157,Tétouan,-5.366666666 , 35.566666666
Q185216,Grapevine,-97.0858 , 32.935
Q185289,Pernik,23.030833333 , 42.609722222
Q185323,Springfield,-86.8786 , 36.4994
Q185345,Poti,41.666666666 , 42.15
Q185346,Ceyhan,35.813888888 , 37.028333333
Q185404,Bundaberg,152.35 , -24.85
Q185453,Multan,71.416666666 , 30.2
Q185458,Quetta,67.007 , 30.192
Q185518,Mandalay,96.086944444 , 21.976944444
Q185555,Birštonas,24.029166666 , 54.605555555
Q185582,Knoxville,-83.95 , 35.966666666
Q185601,Wood River,-90.1267 , 38.8818
Q185609,Belvidere,-88.844166666 , 42.254722222
Q185689,Maros,119.5756829 , -5.0021851
Q185798,Imielin,19.181388888 , 50.147777777
Q186056,"Kenge, Bandundu",16.9 , -4.83
Q186142,Garðabær,-22.0 , 64.083333333
Q186234,Kufa,44.4 , 32.033333333
Q186237,Joensuu,29.763888888 , 62.6
Q186254,Haskovo,25.5575 , 41.931111111
Q186362,Embu,37.45 , -0.533333333
Q186441,Gryfino,14.483333 , 53.25
Q186495,Szklarska Poręba,15.533333333 , 50.833333333
Q186569,Yambol,26.508611111 , 42.484444444
Q193409,Tripoli,22.375 , 37.508333333
Q193413,Rybinsk,38.833333333 , 58.05
Q193419,Rybnoye,39.516666666 , 54.733333333
Q193425,Rylsk,34.683333333 , 51.566666666
Q193443,Salavat,55.933333333 , 53.366666666
Q193445,Artvin,41.819444444 , 41.182222222
Q193452,Armagh,-6.654444 , 54.349444
Q193455,Salair,85.8 , 54.233333333
Q193473,Salsk,41.533333333 , 46.483333333
Q193478,Buda,19.05 , 47.466666666
Q193486,Dire Dawa,41.866666666 , 9.583333333
Q193505,Sarapul,53.8 , 56.466666666
Q193522,Sarov,43.316666666 , 54.933333333
Q193557,Sasovo,41.916666666 , 54.35
Q193569,Satka,59.05 , 55.05
Q193575,Safonovo,33.25 , 55.1
Q193580,Sayanogorsk,91.4 , 53.1
Q193586,Sayansk,102.166666666 , 54.116666666
Q193595,Svetlogorsk,20.15 , 54.933333333
Q193604,Svetlograd,42.851111111 , 45.330833333
Q193631,Svirsk,103.333333333 , 53.083333333
Q193636,Svobodny,128.133333333 , 51.383333333
Q193641,Sebezh,28.483333333 , 56.283333333
Q193652,Severo-Kurilsk,156.116666666 , 50.683333333
Q193662,Severobaykalsk,109.316666666 , 55.633333333
Q193722,Sergiyev Posad,38.133333333 , 56.3
Q193763,"Banovci, Nijemci",19.06666667 , 45.18333333
Q193787,Tauragė,22.290277777 , 55.251388888
Q193802,Oujda,-1.911388888 , 34.686666666
Q193806,Birjand,59.2 , 32.866666666
Q193898,Severomorsk,33.416666666 , 69.069166666
Q193906,Severouralsk,59.933333333 , 60.15
Q193909,Seversk,84.85 , 56.6
Q193917,Sevsk,34.493888888 , 52.15
Q193922,Segezha,34.316666666 , 63.733333333
Q193930,Seltso,34.1 , 53.369444444
Q193936,Semyonov,44.5 , 56.8
Q193941,Semikarakorsk,40.8 , 47.516666666
Q193965,Kamianets-Podilskyi,26.580555555 , 48.680555555
Q194001,Sengiley,48.8 , 53.966666666
Q194020,Serafimovich,42.733333333 , 49.583333333
Q194030,Sergach,45.466666666 , 55.533333333
Q194048,Serdobsk,44.216666666 , 52.466666666
Q194067,Serpukhov,37.4 , 54.916666666
Q194146,Niğde,34.679166666 , 37.966666666
Q194165,Irbid,35.85 , 32.55
Q194328,Uberlândia,-48.276944444 , -18.918888888
Q194332,Mogi das Cruzes,-46.193055555 , -23.522777777
Q194338,São Carlos,-47.890833333 , -22.017777777
Q194438,Sibay,58.65 , 52.7
Q194452,Karakol,78.383333333 , 42.5
Q194623,Sim,57.683333333 , 54.983333333
Q194648,Skovorodino,123.933333333 , 53.983333333
Q194670,Skopin,39.55 , 53.816666666
Q194693,Slavgorod,78.65 , 53.0
Q194708,Slavsk,21.666666666 , 55.05
Q195410,Al-Qusayr,36.579722222 , 34.508888888
Q195492,Kibaha,38.928888888 , -6.758611111
Q195531,Jaramana,36.35 , 33.483333333
Q195662,Slavyansk-na-Kubani,38.124722222 , 45.258611111
Q195683,Slobodskoy,50.161166666 , 58.724166666
Q196163,Łobez,15.616666666 , 53.633333333
Q196357,Snezhinsk,60.733333333 , 56.083333333
Q196358,Snezhnogorsk,33.233055555 , 69.194166666
Q196359,Sobinka,40.016666666 , 55.99
Q196369,Sovetsk,48.938611111 , 57.601305555
Q196373,Sovetsk,37.633333333 , 53.933333333
Q196374,Sovetskaya Gavan,140.283333333 , 48.966666666
Q196377,Sovetsky,63.566666666 , 61.366666666
Q196378,Sokol,40.116666666 , 59.466666666
Q196380,Soligalich,42.283333333 , 59.083333333
Q196384,Solikamsk,56.766666666 , 59.633333333
Q196386,Solnechnogorsk,36.995 , 56.184444444
Q196387,Sol-Iletsk,54.983333333 , 51.166666666
Q196388,Solvychegodsk,46.916666666 , 61.333333333
Q196390,Soltsy,30.316666666 , 58.116666666
Q196392,Sorochinsk,53.15 , 52.433333333
Q196394,Sorsk,90.25 , 54.0
Q196397,Sortavala,30.666666666 , 61.7
Q196399,Sosensky,35.966666666 , 54.05
Q196400,Sosnovka,51.283333333 , 56.25
Q196402,Sosnovoborsk,93.366666666 , 56.133333333
Q196415,Sosnogorsk,53.933333333 , 63.583333333
Q196435,Spas-Demensk,34.033333333 , 54.416666666
Q196439,Spas-Klepiki,40.166666666 , 55.133333333
Q196443,Spassk,43.183333333 , 53.933333333
Q196446,Spassk-Dalny,132.816666666 , 44.6
Q196458,Spassk-Ryazansky,40.383333333 , 54.4
Q196464,Srednekolymsk,153.7 , 67.45
Q196466,Sredneuralsk,60.466666666 , 56.983333333
Q196469,Sretensk,117.716666666 , 52.25
Q196476,Staraya Kupavna,38.183333333 , 55.8
Q196479,Staraya Russa,31.35 , 57.983333333
Q196481,"Staritsa (town), Tver Oblast",34.933333333 , 56.516666666
Q196483,Starodub,32.766666666 , 52.583333333
Q196486,Stary Oskol,37.835 , 51.298055555
Q196489,Sterlitamak,55.95 , 53.633333333
Q196497,Strunino,38.585 , 56.373333333
Q196498,Stupino,38.077222222 , 54.886944444
Q134494,Győr,17.634444444 , 47.684166666
Q134506,Gorodets,43.470277777 , 56.650277777
Q134509,Port Said,32.283333333 , 31.25
Q134512,Gorodishche,45.7 , 53.266666666
Q134514,Suez,32.533333333 , 29.966666666
Q134519,Gorodovikovsk,41.933333333 , 46.083333333
Q134528,Gorokhovets,42.6925 , 56.202777777
Q134531,Goryachy Klyuch,39.133333333 , 44.633333333
Q134620,Jyväskylä,25.733333333 , 62.233333333
Q134651,Grayvoron,35.666666666 , 50.483333333
Q134656,Gremyachinsk,57.833333333 , 58.566666666
Q134663,Gryazi,39.933333333 , 52.5
Q134667,Gryazovets,40.25 , 58.883333333
Q134670,Gubakha,57.583333333 , 58.866666666
Q134672,Exeter,-3.533108333 , 50.721538888
Q134679,Gubkin,37.55 , 51.283333333
Q134686,Gubkinsky,76.5 , 64.433333333
Q134693,Gudermes,46.1 , 43.35
Q134699,Gukovo,39.933333333 , 48.05
Q134703,Kahramanmaraş,36.945277777 , 37.5875
Q134707,Guryevsk,20.6 , 54.766666666
Q134712,Šiauliai,23.316666666 , 55.928055555
Q134717,Guryevsk,85.933333333 , 54.283333333
Q134732,Gusinoozyorsk,106.516666666 , 51.283333333
Q134735,Gus-Khrustalny,40.65 , 55.616666666
Q134740,Davlekanovo,55.033333333 , 54.216666666
Q134752,Dalmatovo,62.916666666 , 56.266666666
Q134760,Dalnerechensk,133.733333333 , 45.933333333
Q134762,Eilat,34.95 , 29.55
Q134770,Danilov,40.183333333 , 58.183333333
Q134776,Dankov,39.15 , 53.25
Q134786,Dedovsk,37.133333333 , 55.866666666
Q134790,Demidov,31.516666666 , 55.266666666
Q134902,Stoke-on-Trent,-2.183333333 , 53.0
Q135161,Desnogorsk,33.290291666 , 54.153086111
Q135189,Dzerzhinsky,37.85 , 55.633333333
Q135213,Divnogorsk,92.383333333 , 55.95
Q135275,Digora,44.15 , 43.15
Q135285,Dimitrovgrad,49.583333333 , 54.233333333
Q135358,Dmitrovsk,35.15 , 52.5
Q135370,Dno,29.966666666 , 57.833333333
Q135386,Dobryanka,56.416666666 , 58.45
Q135394,Dolgoprudny,37.5 , 55.933333333
Q135406,Dolinsk,142.8 , 47.316666666
Q135410,Domodedovo,37.75 , 55.433333333
Q135427,Donskoy,38.316666666 , 53.966666666
Q135432,Nesher,35.05 , 32.766666666
Q135446,Dorogobuzh,33.307777777 , 54.92
Q135456,Drezna,38.833333333 , 55.75
Q135466,Dubna,37.15 , 56.75
Q135473,Dubovka,44.833333333 , 49.05
Q135482,Dudinka,86.183333333 , 69.4
Q135543,Dukhovshchina,32.416666666 , 55.2
Q135549,Dyurtyuli,54.866666666 , 55.483333333
Q135559,Dyatkovo,34.333333333 , 53.6
Q135572,Yegoryevsk,39.016666666 , 55.366666666
Q135615,Springfield,-93.286111111 , 37.195
Q135616,Yeysk,38.277777777 , 46.710555555
Q135650,Yelabuga,52.033333333 , 55.766666666
Q135657,Yelizovo,158.383333333 , 53.183333333
Q135665,Yemanzhelinsk,61.316666666 , 54.75
Q135675,Yemva,50.85 , 62.583333333
Q135686,Yeniseysk,92.133333333 , 58.466666666
Q135696,Yermolino,36.57 , 55.205555555
Q135744,Galveston,-94.7977778 , 29.3013889
Q135754,Yershov,48.283333333 , 51.35
Q135787,Yessentuki,42.864444444 , 44.043055555
Q135809,Yefremov,38.082585 , 53.149167
Q135829,Zheleznovodsk,43.033333333 , 44.133333333
Q135869,Zheleznogorsk,93.533333333 , 56.25
Q135968,Zheleznogorsk-Ilimsky,104.116666666 , 56.583333333
Q135970,Pilar,-58.3 , -26.87
Q135983,Salto del Guairá,-54.34 , -24.02
Q135993,San Pedro de Ycuamandiyú,-57.083333333 , -24.1
Q136023,Zheleznodorozhny,38.016666666 , 55.75
Q136201,Fulton,-90.1589 , 41.8669
Q136217,Erzincan,39.491388888 , 39.746388888
Q136223,Zherdevka,41.466666666 , 51.833333333
Q136310,Zhigulyovsk,49.5 , 53.4
Q136340,Zhizdra,34.736111111 , 53.750277777
Q136361,Zhirnovsk,44.766666666 , 50.983333333
Q136383,Zhukov,36.75 , 55.033333333
Q136411,Zhukovka,33.733333333 , 53.533333333
Q136435,Zhukovsky,38.116111111 , 55.601111111
Q136456,Zavitinsk,129.433333333 , 50.116666666
Q136471,Zavodoukovsk,66.55 , 56.5
Q136490,Zavolzhsk,42.133333333 , 57.483333333
Q136507,Cherry Hills Village,-104.947 , 39.6372
Q136528,Zavolzhye,43.392777777 , 56.6425
Q136551,Zadonsk,38.916666666 , 52.383333333
Q136576,Zainsk,52.016666666 , 55.3
Q136585,Zakamensk,103.283333333 , 50.383333333
Q136629,Zaozyorsk,32.45 , 69.4
Q136656,Zapadnaya Dvina,32.083333333 , 56.266666666
Q136669,Zapolyarny,30.8 , 69.416666666
Q136692,Zaraysk,38.883611111 , 54.765277777
Q136715,Zarechny,45.166666666 , 53.2
Q136758,Zarechny,61.316666666 , 56.816666666
Q136792,Zarinsk,84.916666666 , 53.7
Q159134,Mogocha,119.766666666 , 53.733333333
Q159139,Mozhaysk,36.033333333 , 55.5
Q159149,Mozhga,52.216666666 , 56.45
Q159217,Monchegorsk,32.915555555 , 67.939444444
Q159222,Morozovsk,41.833333333 , 48.35
Q159230,Morshansk,41.8 , 53.45
Q159232,Santa Cruz,-122.026252 , 36.97205
Q159240,Mosalsk,34.983333333 , 54.483333333
Q159261,Moskovsky,37.35 , 55.6
Q159325,Lüderitz,15.157777777 , -26.647777777
Q159501,Muravlenko,74.497222222 , 63.794444444
Q159610,Vlorë,19.483333333 , 40.45
Q159785,Rolling Hills,-85.5778 , 38.2828
Q159814,Uslar,9.635833333 , 51.659722222
Q159835,Batman,41.133333333 , 37.883333333
Q160173,Ruse,25.954444444 , 43.8475
Q160320,Dammam,50.2 , 26.283333333
Q160450,Samsun,36.33 , 41.286666666
Q160493,Inverness,-4.225833333 , 57.483888888
Q160544,Heraklion,25.133333333 , 35.333333333
Q160642,Salisbury,-1.7936 , 51.074
Q160814,Braniewo,19.833333333 , 54.383333333
Q160884,Keetmanshoop,18.133333333 , -26.583333333
Q161595,Mysłowice,19.133333333 , 50.233333333
Q161605,Czeladź,19.083333333 , 50.333333333
Q161887,Kamień Pomorski,14.785833333 , 53.969722222
Q161893,Żukowo,18.360555555 , 54.345833333
Q161899,Złotoryja,15.916666666 , 51.133333333
Q161905,Leśna,15.266666666 , 51.023611111
Q161909,Iłowa,15.205833333 , 51.501944444
Q161912,Solec Kujawski,18.233333333 , 53.083333333
Q161914,Pieńsk,15.046111111 , 51.246388888
Q161919,Białogard,15.983333333 , 54.0
Q161962,Chełmno,18.422777777 , 53.365833333
Q161967,Sławno,16.683333333 , 54.366666666
Q161970,Saky,33.577222222 , 45.133611111
Q161978,Dzhankoy,34.393333333 , 45.708611111
Q161987,Krasnoperekopsk,33.800277777 , 45.9675
Q162022,Mechelen,4.466666666 , 51.016666666
Q162079,Pokhvistnevo,52.133333333 , 53.65
Q162279,Kuopio,27.678333333 , 62.8925
Q162413,Sirte,16.6 , 31.2
Q162442,Allahabad,81.85 , 25.45
Q162489,Angleton,-95.427777777 , 29.166111111
Q162548,Oskemen,82.616666666 , 49.95
Q162615,Cartagena,-0.981944444 , 37.6
Q162640,Murashi,48.966666666 , 59.383333333
Q162677,Murom,42.051388888 , 55.5725
Q162698,Mtsensk,36.566666666 , 53.283333333
Q162761,Myshkin,38.45 , 57.783333333
Q162782,Port Antonio,-76.45 , 18.166666666
Q163464,Charallave,-66.862222222 , 10.243055555
Q163584,Derry,-7.341666666 , 54.991666666
Q163607,Angkor,103.833333333 , 13.433333333
Q163643,Ramenskoye,38.216666666 , 55.566666666
Q163749,West Palm Beach,-80.064166666 , 26.709722222
Q163798,Thrissur,76.21 , 10.52
Q163845,Navashino,42.2 , 55.533333333
Q163864,Navoloki,41.966666666 , 57.466666666
Q163907,Nazarovo,90.391388888 , 56.006388888
Q163935,Nazran,44.766666666 , 43.216666666
Q163954,Nazyvayevsk,71.35 , 55.566666666
Q163986,Narimanov,47.85 , 46.683333333
Q164001,Naro-Fominsk,36.733333333 , 55.383333333
Q164003,"San Buenaventura, La Paz",-67.54083333 , -14.43472222
Q164023,Nowe,18.725555555 , 53.649444444
Q164241,"Jasień, Lubusz Voivodeship",15.0175 , 51.751388888
Q164954,Negotino,22.089166666 , 41.483888888
Q165066,Szprotawa,15.5 , 51.566666666
Q165285,Huittinen,22.698611111 , 61.176388888
Q165413,Baikonur,63.314 , 45.63
Q165414,Hedeby,9.565277777 , 54.491111111
Q165420,Pleven,24.620277777 , 43.407777777
Q165422,Francistown,27.5125 , -21.173611111
Q165444,Tikrit,43.683333333 , 34.6
Q165450,Aral,61.666666666 , 46.8
Q165682,Nartkala,43.85 , 43.55
Q165718,Adel,-94.021666666 , 41.616666666
Q165768,Lobatse,25.666666666 , -25.216666666
Q165773,Nevel,29.933333333 , 56.016666666
Q165790,Nevelsk,141.866666666 , 46.65
Q165806,Nevinnomyssk,41.933333333 , 44.633333333
Q165844,Nevyansk,60.2 , 57.483333333
Q165867,Modi'in-Maccabim-Re'ut,34.985555555 , 31.933888888
Q165941,Frederick,-99.016111111 , 34.390277777
Q165972,Fort Lauderdale,-80.141944444 , 26.135833333
Q165988,Bobonong,28.4363 , -21.9655
Q166065,Lelystad,5.483333333 , 52.516666666
Q166186,Washington,-82.7414 , 33.7353
Q166481,West Lafayette,-86.9125 , 40.441944444
Q166513,Bolgatanga,-0.851388888 , 10.785555555
Q166523,"Utica, Tunisia",10.062258333 , 37.056527777
Q166717,Kruszwica,18.329166666 , 52.677222222
Q166824,Afyonkarahisar,30.538611111 , 38.758055555
Q166838,Zavala,34.6667 , -24.6833
Q166866,Crescent City,-124.201666666 , 41.755833333
Q167155,Kalamazoo,-85.59 , 42.29
Q167183,Marble Falls,-98.278055555 , 30.574166666
Q79943,Bettles,-151.523 , 66.9133
Q79945,Spanish Fort,-87.922179 , 30.668723
Q79950,Hoover,-86.805555555 , 33.386111111
Q79957,Wasilla,-149.4525 , 61.581666666
Q79959,Manokotak,-159.055808 , 58.981087
Q79973,Bessemer,-86.956569 , 33.391343
Q79975,Talladega,-86.101299 , 33.434728
Q79980,Varanasi,83.006111111 , 25.306944444
Q79982,Unalaska,-166.516666666 , 53.883333333
Q79985,Kodiak,-152.394166666 , 57.793055555
Q79987,Madison,-86.739644 , 34.715065
Q79989,Adamsville,-86.949166 , 33.590411
Q79990,Christchurch,172.620277777 , -43.53
Q79991,Beebe,-91.8919 , 35.0714
Q79996,Nome,-165.4 , 64.5
Q80000,Childersburg,-86.353166 , 33.275187
Q80008,Hope,-93.592222 , 33.667778
Q80009,Hoxie,-90.9772 , 36.0486
Q80012,Pine Bluff,-92.016666666 , 34.216666666
Q80016,Siloam Springs,-94.539444444 , 36.183333333
Q80018,San Luis,-114.768333333 , 32.496111111
Q80020,Graysville,-86.962255 , 33.626955
Q80021,Daugavpils,26.516111111 , 55.871388888
Q80022,Bethel,-161.755833333 , 60.792222222
Q80023,Springville,-86.471037 , 33.76895
Q80025,York,-88.2978 , 32.4933
Q80027,Petersburg,-132.941944444 , 56.804444444
Q80029,Smiths Station,-85.098611111 , 32.539166666
Q80031,Osceola,-89.975833333 , 35.702222222
Q80033,Wainwright,-160.016 , 70.6472
Q80035,Red Bay,-88.138208 , 34.439898
Q80037,Valdez,-146.348333333 , 61.130833333
Q80039,Pelican,-136.22389 , 57.95833
Q80043,Wales,-168.089166666 , 65.612222222
Q80045,Geneva,-85.876677 , 31.038181
Q80047,Brighton,-86.9453 , 33.4389
Q80049,Ozark,-93.837222222 , 35.492777777
Q80050,West Memphis,-90.180277777 , 35.148611111
Q80052,Calico Rock,-92.133611111 , 36.1225
Q80053,Tabriz,46.283333333 , 38.083333333
Q80054,Pocahontas,-90.9733 , 36.2636
Q80055,Koyuk,-161.15833 , 64.93083
Q80058,Nenana,-149.090555555 , 64.558055555
Q80060,Egegik,-157.35778 , 58.21917
Q80062,Clinton,-92.457777777 , 35.586388888
Q80065,Chickasaw,-88.083611111 , 30.764722222
Q80067,Coolidge,-111.523055555 , 32.977222222
Q80068,Lincoln,-94.423888888 , 35.948333333
Q80070,Akiak,-161.21389 , 60.91222
Q80072,Eloy,-111.6 , 32.763611
Q80073,Opelika,-85.389402777 , 32.647183333
Q80075,Chefornak,-164.269437 , 60.15907
Q80077,Piggott,-90.1928 , 36.3839
Q80078,Prescott,-93.381944444 , 33.8025
Q80080,Ashdown,-94.127222222 , 33.673333333
Q80081,Shageluk,-159.531 , 62.6561
Q80082,Diomede,-168.951666666 , 65.758333333
Q80084,Kupreanof,-132.9825 , 56.8225
Q80086,Huslia,-156.391666666 , 65.7
Q80087,St. Mary's,-163.218611111 , 62.045277777
Q80089,Sheridan,-92.403611111 , 34.308333333
Q80092,Center Point,-86.680437 , 33.639302
Q80093,Barling,-94.300555555 , 35.322777777
Q80094,Scammon Bay,-165.581694 , 61.842489
Q80096,Heber Springs,-92.039166666 , 35.494444444
Q80098,Fordyce,-92.414444444 , 33.814722222
Q80101,Pea Ridge,-94.1167 , 36.4478
Q80104,Trumann,-90.5192 , 35.6764
Q80106,Greenwood,-94.253333333 , 35.215555555
Q80107,St. Paul,-170.266614 , 57.133806
Q80108,Tuckerman,-91.200833333 , 35.728055555
Q80112,Nuiqsut,-151.005833333 , 70.216388888
Q80116,Gustavus,-135.746 , 58.4164
Q80120,King Cove,-162.318055555 , 55.072222222
Q80124,Lonoke,-91.9008 , 34.7842
Q80129,Coffman Cove,-132.829 , 56.0122
Q80133,Kivalina,-164.539166666 , 67.727222222
Q80134,Wynne,-90.7894 , 35.2275
Q80136,Anderson,-149.195352 , 64.345372
Q80139,Platinum,-161.81529 , 59.00689
Q80144,Hooper Bay,-166.096 , 61.5289
Q80145,Scranton,-93.540833333 , 35.360277777
Q80147,Kwethluk,-161.418556 , 60.802332
Q80148,Sparkman,-92.848888888 , 33.917222222
Q80150,Lexa,-90.7506 , 34.5975
Q80152,Pangburn,-91.839722222 , 35.425833333
Q80153,Summit,-92.6875 , 36.250277777
Q80154,Belleville,-93.449166666 , 35.091666666
Q80156,Gosnell,-89.967222222 , 35.963333333
Q80158,Austin,-91.989166666 , 35.005277777
Q80159,Mayflower,-92.419722222 , 34.968055555
Q80160,St. Michael,-162.053055555 , 63.471111111
Q80162,Colt,-90.811388888 , 35.130833333
Q80163,Portland,-91.511666666 , 33.236666666
Q80164,Hickory Ridge,-90.995 , 35.4008
Q80165,Newark,-91.444722222 , 35.7025
Q80170,Wiederkehr Village,-93.7575 , 35.475555555
Q80172,Port Alexander,-134.657 , 56.24
Q80173,Sulphur Springs,-94.460277777 , 36.482222222
Q201101,Rize,40.516666666 , 41.016666666
Q201127,Asbury Park,-74.012222222 , 40.2225
Q201173,Maryina Horka,28.141666666 , 53.516666666
Q201186,Biskupiec,20.95 , 53.85
Q201203,Maladzyechna,26.851666666 , 54.313611111
Q201218,Myadzyel,26.938611111 , 54.875555555
Q201230,Nyasvizh,26.666666666 , 53.216666666
Q201243,Slutsk,27.55 , 53.016666666
Q201265,Smalyavichy,28.071944444 , 54.022777777
Q201342,Niamtougou,1.1 , 9.766666666
Q201391,Kohtla-Järve,27.283333333 , 59.4
Q201393,Salihorsk,27.533333333 , 52.816666666
Q201403,Staryya Darohi,28.265 , 53.039444444
Q201421,Stowbtsy,26.733333333 , 53.483333333
Q201429,Uzda,27.224444444 , 53.466111111
Q201439,Fanipol,27.333333333 , 53.75
Q201458,Chervyen,28.432222222 , 53.707777777
Q201613,Maebashi,139.066666666 , 36.383333333
Q201722,Veroia,22.201944444 , 40.520277777
Q201729,Sanok,22.216666666 , 49.55
Q201769,Gunnison,-111.818333333 , 39.155277777
Q201832,Aligarh,78.08 , 27.88
Q201932,Kōfu,138.566666666 , 35.666666666
Q202139,Asansol,86.966666666 , 23.683333333
Q202158,Hämeenlinna,24.441388888 , 61.0
Q202160,Kutno,19.366666666 , 52.233333333
Q202162,Aba,7.366666666 , 5.116666666
Q202188,Ardahan,42.7 , 41.116666666
Q202195,Tunceli,39.548055555 , 39.106111111
Q202726,Franklin,-71.6475 , 43.4442
Q202736,Littlefield,-102.325 , 33.9172
Q202776,Ziguinchor,-16.266666666 , 12.583333333
Q202828,Freeport,-89.630277777 , 42.291944444
Q202852,Bled,14.116666666 , 46.366666666
Q202889,Opalenica,16.413611111 , 52.307777777
Q202907,Ōtsu,135.85 , 35.016666666
Q202973,Kingston,-76.5 , 44.233333333
Q203000,Perth,-3.431666666 , 56.395277777
Q203045,Semnan,53.383333333 , 35.583333333
Q203197,Kandy,80.638452777 , 7.296961111
Q203263,Athens,-83.383055555 , 33.955277777
Q203299,Faiyum,30.833333333 , 29.3
Q203301,Umuahia,7.483333333 , 5.533333333
Q203380,Napier,176.864375 , -39.568044444
Q203403,Saint John,-66.0628 , 45.2796
Q203619,Kemi,24.563888888 , 65.736111111
Q203675,Mažeikiai,22.336111111 , 56.311111111
Q203865,Spring Grove,-91.636111111 , 43.561111111
Q204087,Suisun City,-122.016944444 , 38.245
Q204150,Pinsk,26.083333333 , 52.116666666
Q204308,Miyazaki,131.416666666 , 31.916666666
Q204381,Goma,29.22 , -1.69
Q204382,Kouvola,26.704166666 , 60.868055555
Q204391,Zinjibar,45.380277777 , 13.128333333
Q204439,El Alamein,28.95 , 30.833333333
Q204442,Fernie,-115.063 , 49.5042
Q204561,Modesto,-120.994444444 , 37.661388888
Q204720,Hereford,-2.716111111 , 52.056388888
Q204905,Eleusis,23.545278 , 38.041389
Q204957,Kalundborg,11.085 , 55.681388888
Q204982,Anahuac,-94.678888888 , 29.768333333
Q205119,Cajamarca,-78.510555555 , -7.164444444
Q205272,"Farmersville, Texas",-96.3667 , 33.1642
Q205327,Kananga,22.448833333 , -5.897
Q205332,Zion,-87.840222 , 42.453221
Q205526,Yamagata,140.333333333 , 38.25
Q205648,Granada,-85.95 , 11.933333333
Q205697,Howrah,88.266388888 , 22.584444444
Q205755,"Ravenna, Texas",-96.2417 , 33.6717
Q205792,Tamanrasset,5.522777777 , 22.785
Q205832,Corfu,19.916666666 , 39.616666666
