item,label,lon,lat
Q597055,Nukus Museum of Art,59.60222222 , 42.46472222
Q597318,Malye Korely,40.94583333 , 64.45416667
Q597398,Haifa Museum of Art,34.9925 , 32.815
Q597912,Cider Museum,-5.50361 , 43.3583
Q598646,Olympic Museum,6.633888888 , 46.508611111
Q598975,Uniseum,7.84863 , 47.995345
Q601223,Eise Eisinga Planetarium,5.543965 , 53.187348
Q603939,Q603939,12.50111111 , 41.90916667
Q605210,Cloppenburg Museum Village,8.05111 , 52.8489
Q605463,Ullens Center for Contemporary Art,116.488 , 39.9891
Q608318,Antonín Dvořák Museum,14.426979 , 50.073668
Q608779,Jewish Community Centre of Krakow,19.944866666 , 50.052925
Q609692,Brussels Tram Museum,4.43389 , 50.83139
Q611062,Q611062,2.90416667 , 48.97138889
Q613201,Nikola Tesla Museum,20.4707 , 44.8051
Q613228,Q613228,8.56194 , 54.6872
Q614450,Palais de la Découverte,2.310833333 , 48.866111111
Q615930,Phuthadikobo Museum,26.1521 , -24.3878
Q616017,Yitzhak Rabin Center,34.7998 , 32.1029
Q616329,Museo del Grabado de Goya,-0.92513 , 41.3358
Q619713,Nehru Memorial Museum & Library,77.198774 , 28.602608
Q620535,Q620535,6.76427 , 50.5547
Q620547,Q620547,8.3434 , 48.2899
Q620550,Q620550,10.9714 , 49.0313
Q622913,Puke Ariki,174.07166667 , -39.05
Q623176,Q623176,6.85556 , 51.4433
Q623210,Q623210,6.74972 , 51.2564
Q623662,Romanian Peasant Museum,26.083677777 , 44.454383333
Q624008,National Building Museum,-77.018056 , 38.8975
Q625590,Museum of Occupations,24.73943056 , 59.43264722
Q625749,Tteok Museum,126.991 , 37.5749
Q625781,Kimchi Field Museum,127.0588 , 37.5125
Q626115,Tibet Museum,126.98211 , 37.58023
Q626736,Hwajeong Museum,126.965919 , 37.604789
Q626811,Independence Hall of Korea,127.22297 , 36.78358
Q627507,Q627507,10.365 , 53.43388889
Q629197,Israel Defense Forces History Museum,34.76138889 , 32.0575
Q630433,Arboretum Lohbrügge,10.19916667 , 53.50388889
Q630745,Nassau Public Library,-77.340530555 , 25.076477777
Q630922,Beit Al Quran,50.5915421 , 26.2397585
Q631349,Náprstek Museum,14.416444 , 50.08405
Q634421,Centre de Documentació i Museu de les Arts Escèniques,2.15775 , 41.37119722
Q635570,Q635570,16.3789 , 48.2094
Q636509,Q636509,11.1809 , 48.737
Q636513,Q636513,10.4222 , 49.4972
Q636562,Archäologiemuseum Oberfranken,11.0556 , 49.7203
Q636787,Q636787,10.323 , 47.7276
Q636821,Archäologisches Freilichtmuseum Funkenburg,10.9181 , 51.2389
Q636833,Q636833,8.83388889 , 47.7625
Q636865,Q636865,12.5631 , 52.4061
Q638130,Q638130,10.9582 , 49.0307
Q638393,Q638393,10.9706 , 49.0316
Q638502,Roman Museum Weißenburg,10.9702 , 49.0318
Q642039,Banqueting House,-0.1256 , 51.5044
Q642825,Musée des Collections Historiques de la Préfecture de Police,2.3482 , 48.8495
Q643731,Spøttrup Borg,8.78269444 , 56.63961111
Q644281,V&A Museum of Childhood,-0.055 , 51.5289
Q645504,Museo del fiore,11.924447 , 42.739745
Q648080,Q648080,3.11666667 , 45.89361111
Q649250,Royal Ontario Museum,-79.39468333 , 43.66757222
Q649933,Neuberg Abbey,15.578611111 , 47.663055555
Q650391,Garden of Archimedes,11.197 , 43.7733
Q650519,Musée Rodin,2.315819 , 48.855356
Q650999,Q650999,92.8725 , 56.00722
Q651366,Silesian regional museum Opava,17.903938 , 49.93429
Q653691,Q653691,92.8725 , 56.01361111
Q655864,Q655864,10.794097 , 45.378954
Q656296,Galerie nationale du Jeu de Paume,2.323888888 , 48.865833333
Q656957,Miraikan,139.77666667 , 35.61916667
Q657657,Q657657,6.16911111 , 49.35791667
Q658339,Numismatic Museum of Athens,23.7354 , 37.9778
Q658415,Nelson Rooms,-2.7147739 , 51.811361
Q658543,"Almásy Mansion, Tarnaméra",20.156391 , 47.650872
Q660452,Museum Autovision,8.50625 , 49.2981
Q660598,Erawan Museum,100.58888889 , 13.62833333
Q663764,Auschwitz-Birkenau concentration camp,19.175 , 50.03777778
Q663776,Museum of Modern Art of Algiers,3.05 , 36.7667
Q664766,Guido Gezellemuseum,3.23747 , 51.21485
Q664955,Q664955,16.486879 , 50.84287
Q666713,Globe Museum,16.3653 , 48.2093
Q667858,Bodmer Foundation,6.1806 , 46.2153
Q667906,Museum De Cruquius,4.63821 , 52.33801
Q668772,Alcázar de Colón,-69.88275 , 18.4775
Q669212,Arithmeum,7.10492 , 50.7306
Q670077,Royal Academy of Fine Arts of Saint Isabel of Hungary,-5.99106 , 37.3877
Q670212,Leiden American Pilgrim Museum,4.49363 , 52.157689
Q670268,Musée de l'Homme,2.2886 , 48.8627
Q672751,Swarovski Kristallwelten,11.6008 , 47.2939
Q673942,Arctic and Antarctic Museum,30.35359444 , 59.92750556
Q675326,Kunsthaus Bregenz,9.74778 , 47.5047
Q675774,Museum of Ethnology,9.98916667 , 53.56833333
Q675827,Dollhouse Museum,7.588888888 , 47.553888888
Q675877,Anahuacalli Museum,-99.14417 , 19.3225
Q676968,San Diego Museum of Man,-117.152 , 32.7314
Q679366,Muscle Shoals Sound Studio,-87.673889 , 34.767778
Q174911,The Rooms,-52.71183889 , 47.56623611
Q176356,House of the Temple,-77.0359 , 38.9138
Q177125,Burg Clam,14.7783 , 48.2208
Q177174,Icelandic Phallological Museum,-21.914603 , 64.142952
Q178533,Muzeum Ziemi Szprotawskiej,15.53583333 , 51.56388889
Q179134,Q179134,6.86818 , 51.4291
Q186039,Q186039,13.7717 , 47.8132
Q186043,Zeitgeschichtliches Forum Leipzig,12.3758 , 51.3397
Q187840,Palais Garnier,2.331666666 , 48.871944444
Q189358,Kronborg,12.621944444 , 56.038611111
Q190260,Zentralbibliothek Zürich,8.545277777 , 47.374166666
Q190456,Central State Museum of Kazakhstan,76.950731 , 43.235816
Q191397,Zeppelin Museum Meersburg,9.27168 , 47.69392
Q191399,Zeppelin Museum Zeppelinheim,8.6145 , 50.0349
Q191427,Zeppelin Museum Friedrichshafen,9.48303 , 47.65056
Q195754,Volleyball Hall of Fame,-72.606 , 42.2057
Q196954,"Armoury, Innsbruck",11.4075 , 47.2707
Q196982,Zeugma Mosaic Museum,37.38555556 , 37.07555556
Q198347,Historical museum,8.6825 , 50.1097
Q198590,Q198590,12.271 , 51.1693
Q198593,Ziegelei Lage,8.77861111 , 52.025
Q198603,Q198603,12.9225 , 52.3544
Q199335,Musée de la Faïence de Marseille,5.373444 , 43.233528
Q199395,Zigeunerlager Auschwitz,19.17333333 , 50.0375
Q201383,Alexandria National Museum,29.9132 , 31.2011
Q201902,Mole Antonelliana,7.693055555 , 45.068888888
Q202552,Prince of Wales Northern Heritage Centre,-114.38 , 62.4561
Q203116,Schloss Pöggstall,15.1985 , 48.3181
Q203864,Zimmer tower,4.569722 , 51.129167
Q204332,Schloss Atzenbrugg,15.9057 , 48.2924
Q205631,Kroppedal,12.31166667 , 55.68472222
Q206101,Rosenborg Castle,12.577777777 , 55.685555555
Q206518,Exploratorium,-122.448333 , 37.802778
Q206929,Q206929,8.52694 , 47.3919
Q211262,Calouste Gulbenkian Museum,-9.154166666 , 38.736666666
Q212065,Edinburgh Castle,-3.20073 , 55.9487
Q213322,Victoria and Albert Museum,-0.172078 , 51.496302
Q214022,21er Haus,16.3833 , 48.1858
Q215423,Saint Isaac's Cathedral,30.30595 , 59.934047
Q218736,Q218736,7.13371 , 49.1362
Q222297,Museum for Natural Sciences of Belgium,4.376166666 , 50.837055555
Q223373,Estonian Maritime Museum,24.749644444 , 59.442591666
Q227602,Zubrnice,14.220484857 , 50.649532647
Q227776,Sugar Museum (Berlin),13.3453 , 52.5456
Q227848,Q227848,16.03916667 , 48.32611111
Q228479,Q228479,10.55005 , 53.43587
Q238990,United States Holocaust Memorial Museum,-77.033 , 38.887
Q240807,Jeruzalemkerk,3.23444 , 51.21222
Q251672,Château Borély,5.381955 , 43.257423
Q252800,Abbot's Palace (Oliwa),18.56026667 , 54.41085833
Q253745,Q253745,12.306 , 48.0021
Q254086,Q254086,31.24906667 , 30.06352778
Q254118,Los Angeles Museum of the Holocaust,-118.369 , 34.0639
Q254134,Q254134,12.38 , 51.33986389
Q256200,Charlier Museum,4.369722 , 50.8475
Q256777,Fundación NMAC,-5.90717983 , 36.24304962
Q258173,Q258173,76.948977 , 43.243354
Q259242,Huntington Beach State Park,-79.0611 , 33.5139
Q260913,Centraal Museum,5.125833 , 52.083333
Q260983,Ghetto Fighters' House,35.09527778 , 32.96052778
Q262234,Lenbachhaus,11.180277777 , 48.146938888
Q263750,"Long Island Museum of American Art, History, and Carriages",-73.1417 , 40.9119
Q264941,Q264941,12.6585 , 47.7241
Q266565,Q266565,11.8783 , 47.7075
Q273593,École nationale supérieure des Beaux-Arts,2.333522222 , 48.856711111
Q273653,Q273653,7.28583333 , 47.85361111
Q276846,Francke Foundations,11.9719 , 51.4781
Q278571,Jewish Museum Frankfurt,8.67444 , 50.1072
Q278978,Dresden Museum of Ethnology,13.7377 , 51.0599
Q280024,Q280024,11.602013888 , 48.102277777
Q280171,Ernest Hemingway House,-81.800833 , 24.551111
Q281725,Wagenburg,16.3094 , 48.1867
Q281903,Prinsenhof,4.354444 , 52.011667
Q284916,Gabinet de les Arts Gràfiques,2.11702778 , 41.38838889
Q287290,Archaeological Museum of Nikopolis,20.73527778 , 39.00805556
Q287806,Gaasbeek Castle,4.197222 , 50.796667
Q296758,Q296758,16.711111111 , 56.739444444
Q301787,Bergen Museum,5.321580555 , 60.387622222
Q304037,Austrian National Library,16.36626667 , 48.20614167
Q304797,Q304797,80.254579 , 50.409939
Q306604,Filmmuseum Austria,16.3683 , 48.2047
Q306611,Q306611,15.3144 , 47.1578
Q306615,Q306615,16.4308 , 48.2437
Q306628,Gesellschafts- und Wirtschaftsmuseum,16.3569 , 48.1839
Q306671,Q306671,15.4479 , 46.9867
Q306678,Austrian Museum of Folk Life and Folk Art,16.3509 , 48.2133
Q306724,Austrian Theatre Museum,16.36851389 , 48.20549167
Q314082,Lower Saxony State Museum,9.74 , 52.3656
Q314441,Museum Ostwall,7.472222 , 51.513056
Q314446,Tränenpalast,13.3869 , 52.5208
Q314818,New Chambers,13.0356 , 52.4036
Q315021,Haus der Geschichte,7.11861 , 50.7172
Q315050,Afghan Museum,9.98944444 , 53.54333333
Q315089,Schloss Drachenburg,7.206363888 , 50.668663888
Q315187,Buddenbrookhaus,10.6858 , 53.8683
Q315313,Roscheider Hof Open Air Museum,6.59722222 , 49.70472222
Q315644,Deutscher Dom,13.392505555 , 52.512755555
Q950,Schnütgen Museum,6.95143889 , 50.93471389
Q1376,Musée Saint-Raymond,1.44112 , 43.60787
Q4890,Gemäldegalerie Alte Meister,13.734714 , 51.053542
Q5556,Musei civici di Treviso,12.250797222 , 45.666727777
Q6373,British Museum,-0.127022 , 51.519489
Q7341,Auschwitz concentration camp,19.178333 , 50.035833
Q8323,Musée de l'Imprimerie,4.83472222 , 45.76444444
Q8352,Musée des Confluences,4.817923 , 45.732355
Q8397,Musée Gadagne,4.8275 , 45.76416667
Q9485,Manécanterie,4.82680556 , 45.760625
Q9495,Site historique maritime de la Pointe-au-Père,-68.4689 , 48.5175
Q12506,Hagia Sophia,28.979916666 , 41.008527777
Q17454,Exploramer,-66.487198 , 49.130973
Q19164,State Art and Architectural Palace and Park Museum,30.10996112 , 59.56108334
Q19874,National Museum of Cinema,7.69305556 , 45.06888889
Q22600,Museum SchPIRA,8.439654 , 49.316475
Q22616,Feuerbachhaus,8.43567 , 49.3146
Q22625,German Shoe Museum Hauenstein,7.85583 , 49.1897
Q22838,Purrmann house,8.43482 , 49.3185
Q23212,Evoluon,5.446944444 , 51.443611111
Q27017,Kinsky Palace,14.42166667 , 50.08805556
Q27342,Hangar-7,13.0073 , 47.7937
Q28924,Catacombs of Paris,2.332322222 , 48.834008333
Q29587,Kuskovo,37.8075 , 55.735277777
Q29646,Bread Museum,46.931666666 , 39.991666666
Q31034,Liuzhou Museum,109.4080556 , 24.32166667
Q31808,Nordsøen Oceanarium,9.98047 , 57.5871
Q32776,Igualada Leather Museum,1.61358 , 41.57717
Q40680,Aquarium Dubuisson,5.57869 , 50.63877
Q41759,"Heiberg Collection, Sogn Folk Museum",7.21777773 , 61.18777847
Q42049,Balmoral Castle,-3.231389 , 57.039722
Q45002,Mane-Katz Museum,34.987166666 , 32.807861111
Q46012,House of European History,4.378764 , 50.839939
Q46242,Hofburg Palace,16.366024 , 48.206429
Q46495,Sunnfjord Museum,5.9727859 , 61.4395883
Q46815,Israel Museum,35.2045 , 31.772361
Q49739,Peasants' War Panorama Museum,11.10333333 , 51.36611111
Q50895,Q50895,30.08972222 , 59.36625
Q50900,house of the station master,29.95852778 , 59.34788889
Q50901,house of the nanny of A.S. Pushkin,30.115 , 59.4282
Q50906,Rozhdestveno Memorial Estate,29.946 , 59.317
Q51099,Museo Teatrale alla Scala,9.1892 , 45.4673
Q51166,"""Luigi Bailo"" Museum",12.141729 , 45.400303
Q51237,"Shcherbov House, Gatchina",30.13361111 , 59.55722222
Q53323,Iwajuku,139.28571944 , 36.39929167
Q55396,Deutsches Sport & Olympia Museum,6.96465 , 50.93117
Q56007,Q56007,8.54258 , 53.2234
Q61969,Q61969,27.5558 , 53.908958
Q73613,Nagasaki Museum of History and Culture,129.879557 , 32.752813
Q74000,"Great Guild Hall, Tallinn",24.746 , 59.4371
Q74136,Blaenavon Ironworks,-3.08876 , 51.7765
Q75566,Musée des beaux-arts d'Arras,2.773333333 , 50.291944444
Q80843,Troja Palace,14.415 , 50.11615
Q82108,Sarehole Mill,-1.85581 , 52.4341
Q83332,Imperial Palace of Manchukuo,125.34277778 , 43.90388889
Q84029,Twenty-Six Martyrs Museum and Monument,129.872 , 32.7547
Q93429,Syusaku Endo Literature Museum,129.702693 , 32.835865
Q93466,Corpus,4.45333 , 52.17028
Q94564,Museums of the Far East,4.3601 , 50.8939
Q95569,Kunsthistorisches Museum,16.361944 , 48.203611
Q112485,Castel Savoia,7.82679 , 45.764
Q113429,Rother-Hof,16.388547222 , 47.912313888
Q113528,Österreichischer Skulpturenpark,15.4318 , 46.9788
Q114597,Old Jewish Cemetery,17.025 , 51.08694444
Q114878,Museo dell'olivo e dell'olio,12.43455 , 43.02526
Q115619,Q115619,16.3558 , 48.2428
Q118256,Špilberk Castle,16.598889 , 49.194444
Q125589,Fakir Khana,74.3097092 , 31.5831758
Q126393,Palais Erzherzog Albrecht,16.3678 , 48.2044
Q126971,Altonaer Museum,9.93444444 , 53.54888889
Q129904,Centro Cultural Border,-99.15635833 , 19.41681667
Q130899,Longtan Park,116.43555556 , 39.87694444
Q132009,Q132009,11.238735 , 46.801462
Q133982,The Florence Museum of Botanical Natural Science,11.26008 , 43.77805
Q136661,Zaanse Schans,4.816389 , 52.473889
Q136946,City Museum of Wrocław,17.0325 , 51.1097
Q141355,Q141355,5.39867 , 52.94318
Q142261,Q142261,-0.54588889 , 45.57869444
Q143767,Q143767,14.2867 , 48.3058
Q144900,National Postal Museum,-77.0083 , 38.898
Q151456,Q151456,7.16572 , 50.8174
Q151545,Wartburg,10.3065 , 50.9662
Q152966,Deutsches Jagd- und Fischereimuseum,11.5711 , 48.1384
Q153193,Thermenmuseum,5.976667 , 50.885
Q157316,Neues Museum,13.397777777 , 52.520555555
Q159556,The Philippi Collection,7.22141 , 49.2864
Q160471,Q160471,-96.986468 , 30.116318
Q161768,Q161768,13.4077 , 52.5231
Q162016,Q162016,10.8808 , 50.8506
Q162017,Q162017,7.75949 , 50.0895
Q162198,Museum of Neandertals in Krapina,15.863616 , 46.164603
Q162946,Q162946,13.5093 , 46.8138
Q162965,Q162965,8.93280556 , 44.41133333
Q163291,The Culture- and Military Museum Grafenwoehr,11.9041 , 49.7205
Q163867,Museum of Tyrolean Farms,11.9188 , 47.4634
Q164502,Haus Ludwig,6.74891 , 49.3136
Q169369,Château Pastré,5.373333333 , 43.233333333
Q174552,Technopolis,23.7141 , 37.9781
Q315894,Klingspor Museum,8.76111 , 50.1078
Q316137,Melanchthonhaus,12.65083 , 51.86472
Q316298,Ottoneum,9.49889 , 51.3133
Q316385,Roman amphitheatre of Xanten,6.451 , 51.667
Q317306,German Leather Museum,8.755 , 50.1033
Q317959,Dankwarderode Castle,10.5242 , 52.2647
Q318084,Beethoven House,7.10139 , 50.7369
Q318174,Museum Europäischer Kulturen,13.2928 , 52.4558
Q318577,Abelines Gård,8.15606 , 55.9455
Q318594,Museum of Tolerance,-118.401680555 , 34.053636111
Q318614,Rheinisches Landesmuseum Bonn,7.0925 , 50.7319
Q318809,German Emigration Center,8.57417 , 53.5453
Q319046,Q319046,12.4395 , 50.9885
Q320780,Deutsches Brauereimuseum,11.573 , 48.1351
Q321088,Mathematisch-Physikalischer Salon,13.7328 , 51.0532
Q321229,Holstentor,10.6797 , 53.8662
Q321240,Walhalla memorial,12.224088888 , 49.031486111
Q321337,Hegel House,9.17694 , 48.7731
Q323280,Museum für Abgüsse Klassischer Bildwerke,11.5667 , 48.1444
Q323860,Museum of Genocide Victims,25.27059167 , 54.68787778
Q324658,Kunsthalle Düsseldorf,6.77594 , 51.2276
Q327540,Kunsthalle Kiel,10.14611111 , 54.32861111
Q333527,Übersee-Museum Bremen,8.81056 , 53.0833
Q336153,Q336153,9.96388889 , 53.54611111
Q339765,Q339765,18.22106111 , 46.074125
Q340128,Schloss Rosenau,15.0636 , 48.6011
Q341718,Temple of Agriculture,116.3874 , 39.8754
Q347676,Memorial of the Victims of Communism and of the Resistance,23.89111111 , 47.92666667
Q351228,Haus der Musik,16.3733 , 48.2042
Q361792,Netherlands Architecture Institute,4.470833 , 51.914444
Q366672,Löfstad Castle,16.04069444 , 58.55047222
Q367631,Karen Blixen Museum,36.7125 , -1.35194444
Q367690,National Centre for Contemporary Arts,37.60777778 , 55.78916667
Q371803,Museu Paulista,-46.609678 , -23.585608
Q371836,Q371836,9.67918 , 49.2586
Q372030,Ore Mountain Museum,13.0043 , 50.5784
Q372088,Ahmed Shawki Museum,31.2175 , 30.0214
Q372376,House of Terror,19.06513889 , 47.50680556
Q372676,Technisches Museum Wien,16.3176 , 48.1908
Q374902,The Asiatic Society,88.3495805 , 22.5550809
Q378012,Mondsee Abbey,13.3505 , 47.8565
Q378377,Museum of World Culture,11.98916667 , 57.69472222
Q383147,Afghanistan Museum,7.73657 , 47.45261
Q383254,Afif-Abad Garden,52.498361 , 29.623161
Q383813,Q383813,16.56472222 , 47.42305556
Q385797,Stams abbey,10.9842 , 47.2775
Q387292,Mosul Museum,43.139405 , 36.337859
Q387667,Mozarthaus Vienna,16.3753 , 48.2078
Q388667,Universeum,11.989166666 , 57.695555555
Q389845,Maihaugen,10.478433 , 61.112821
Q390003,Einsteinhaus,7.4499 , 46.9479
Q390508,Berlin-Hohenschönhausen Memorial,13.5011 , 52.5417
Q394429,Q394429,9.37401 , 52.332
Q394832,convent of St Agnes of Bohemia,14.424861111 , 50.092494444
Q396139,Barnim Panorama,13.4538 , 52.7524
Q396260,Q396260,14.8072 , 56.8756
Q406679,Esperanto Museum in Svitavy,16.47261389 , 49.75468889
Q409578,Q409578,10.6077 , 49.5818
Q421084,Acropolis Museum,23.728472 , 37.968417
Q422988,Q422988,8.24275 , 50.0851
Q427665,Q427665,6.59323 , 48.0161
Q427979,Belize Botanic Gardens,-89.066666666 , 17.083333333
Q431431,Singer Laren,5.22222 , 52.25944
Q435702,Q435702,15.2563 , 47.0711
Q439212,Q439212,12.3747 , 51.3336
Q439345,Casa Sfatului (Brașov),25.588879 , 45.642399
Q441928,Museum of Modern Literature,9.256667 , 48.936111
Q443626,Dybbøl Windmill,9.75797778 , 54.90693056
Q445066,Holocaust Memorial Synagogue,37.496277777 , 55.73
Q447441,Bergpark Wilhelmshöhe,9.4 , 51.3167
Q449280,Fridericianum,9.4975 , 51.3136
Q452362,Hessisches Landesmuseum Darmstadt,8.65306 , 49.8747
Q452375,Swiss Alpine Museum,7.448055555 , 46.944166666
Q452685,Munich Stadtmuseum,11.573 , 48.1351
Q453713,Q453713,16.14305556 , 49.85194444
Q454019,Wieliczka Salt Mine,20.06389 , 49.97917
Q454416,Linden Museum,9.17028 , 48.7825
Q455354,German Shipping Museum,8.577 , 53.5401
Q455706,Amathole Museum,27.39159444 , -32.87718611
Q457196,Dialogue in the Dark,10.00161111 , 53.54619444
Q457453,Villa Tugendhat,16.615833333 , 49.207222222
Q458586,Jura Museum,11.1686 , 48.895
Q458915,Nuremberg Transport Museum,11.074444 , 49.445556
Q459493,Lutherhaus,12.6525 , 51.8642
Q463403,Lübeck Museum of Theatre Puppets,10.682247222 , 53.865763888
Q463748,Karl Marx House,6.635556 , 49.753889
Q464416,Neanderthal Museum,6.95056 , 51.2269
Q465746,American Museum in Britain,-2.311 , 51.3768
Q465765,Museum of the Moving Image,-73.92396389 , 40.75621111
Q468169,Suermondt-Ludwig-Museum,6.09569 , 50.7735
Q468496,Museums Reiss-Engelhorn,8.46212 , 49.4889
Q469084,Q469084,8.5744 , 53.5434
Q469234,Q469234,13.292222 , 52.456111
Q1390752,Q1390752,10.9197 , 48.3675
Q1391590,Q1391590,11.1405 , 51.7883
Q1391782,Q1391782,8.67358 , 50.433
Q1392568,Q1392568,13.7264 , 51.0544
Q1392854,Q1392854,13.05 , 50.9264
Q1392855,Q1392855,8.44787 , 48.8608
Q1392980,Q1392980,7.249444444 , 51.407777777
Q1393510,Q1393510,8.83398 , 50.5971
Q1393762,Q1393762,9.8892 , 48.2303
Q1394061,Q1394061,11.7717 , 51.2096
Q1395892,La Hougue Bie,-2.0638 , 49.2006
Q1398020,Q1398020,7.188333333 , 51.4075
Q1398526,Q1398526,8.75764 , 49.0238
Q1398557,Q1398557,11.3983 , 47.2562
Q1398911,Musée du Désert,3.95722222 , 44.09583333
Q1399618,Q1399618,11.9654 , 51.4844
Q1400323,Sarajevo Tunnel,18.337222222 , 43.819722222
Q1400687,Q1400687,9.61102 , 48.0699
Q1400936,Q1400936,13.5994 , 48.3953
Q1401556,Q1401556,19.385228 , 47.693047
Q1401968,Feinmechanisches Museum Fellenbergmühle,6.64334 , 49.4455
Q1402017,Museum of Witchcraft,-4.692 , 50.689
Q1402086,"Vasarely Museum, Budapest",19.0464854 , 47.5401911
Q1402333,Q1402333,6.65125 , 51.0621
Q1402600,Museum of the City of Mexico,-99.13254722 , 19.4292
Q1402976,Q1402976,7.48306 , 51.5297
Q1406810,Q1406810,5.38722 , 52.15639
Q1408056,Strindbergmuseum Saxen,14.7903 , 48.2075
Q1408163,Irish National Heritage Park,-6.517106 , 52.348108
Q1408905,Q1408905,11.9185 , 50.324
Q1408998,Q1408998,10.000331 , 53.525512
Q1409038,Q1409038,13.0473 , 47.7956
Q1409289,Q1409289,9.48806 , 51.3092
Q1409387,Q1409387,9.283664 , 47.761531
Q1409670,Q1409670,9.912827 , 53.543565
Q1410032,Q1410032,10.8876 , 49.9021
Q1410033,Q1410033,6.4867 , 50.7703
Q1410037,Q1410037,13.2861 , 52.5864
Q1410040,Q1410040,6.85351 , 50.622
Q1410042,Q1410042,10.6246 , 47.8808
Q1410044,Q1410044,10.0107 , 53.3091
Q1410047,Q1410047,11.5694 , 48.1328
Q1410049,Q1410049,11.0875 , 49.4483
Q1410050,Q1410050,9.21972 , 48.8192
Q1410053,Q1410053,8.06875 , 51.4055
Q1410702,Sabarmati Ashram,72.580833 , 23.06
Q1410802,Q1410802,14.2919 , 48.3039
Q1410887,Q1410887,15.1251 , 47.0829
Q1410938,Fichtelgebirge Museum,12.0033 , 50.0389
Q1411982,Q1411982,6.86083 , 51.4919
Q1412221,Q1412221,7.6623 , 47.5541
Q1412464,Rieskrater Museum,10.4869 , 48.854
Q1412878,Q1412878,6.84889 , 51.4744
Q1414079,Museum of Science and Industry,-87.582777777 , 41.790555555
Q1414278,Q1414278,9.92872 , 53.546258
Q1414479,Museum of Papermaking in Duszniki-Zdrój,16.395485 , 50.4045
Q1415137,Filmmuseum Düsseldorf,6.77043 , 51.2241
Q1415871,Fort Tejon,-118.894 , 34.874
Q1415972,Kon-Tiki Museum,10.698056 , 59.903611
Q1417534,Haller Straße 3,9.46103 , 49.0802
Q1418291,Kačina,15.34611111 , 49.98166667
Q1419951,Q1419951,9.35255 , 52.455
Q1420035,Q1420035,8.70667 , 53.8623
Q1420984,Pammakaristos Church,28.946388888 , 41.029166666
Q1421776,Museo Vostell-Malpartida,-6.504444444 , 39.421944444
Q1423558,Q1423558,15.8177 , 48.6398
Q1423672,Museum of Industrial Culture,11.1108 , 49.4611
Q1424850,Q1424850,10.1245 , 47.9032
Q1426026,Q1426026,18.22693 , 46.078635
Q1426502,Alaska State Centennial Museum,-134.41555556 , 58.30027778
Q1426707,Fort George,-4.070177777 , 57.583844444
Q1427503,Golden Gate,30.51305556 , 50.44833333
Q1428044,Patna Museum,85.143888888 , 25.611111111
Q1428566,Fliegermuseum Bad Wörishofen,10.6022 , 48.0112
Q1430022,Q1430022,13.9918 , 51.8628
Q1430185,Rockefeller Museum,35.235833333 , 31.784444444
Q1430259,Q1430259,6.66861 , 51.4358
Q1430299,Q1430299,11.0723 , 53.5144
Q1431259,Toitū Otago Settlers Museum,170.506 , -45.8775
Q1431343,Jurassic Museum of Asturias,-5.27476944 , 43.5019
Q1431438,Museo Taurino de Valencia,-0.375525 , 39.466299
Q1431976,Q1431976,10.7164 , 52.4172
Q1432360,Ronald Reagan Presidential Library,-118.819744444 , 34.259516666
Q1433416,Q1433416,16.2525 , 47.8428
Q1433963,Q1433963,14.295296 , 51.765503
Q1434092,Pasqualati House,16.362 , 48.2123
Q1434400,Semmelweis Museum,19.0432111 , 47.493352
Q1434988,Focke's wind tunnel,8.816 , 53.0806
Q1434990,Focke Museum,8.86417 , 53.0925
Q1435513,Q1435513,11.4786 , 53.6003
Q1435641,Q1435641,5.858611111 , 49.535
Q1435660,Herzog Foundation,7.60974 , 47.53337
Q1435661,Fondation Le Corbusier,2.26525 , 48.8519
Q1435907,Q1435907,10.3188 , 48.0576
Q1436503,Martin Luther's Birth House,11.55007 , 51.52694
Q1436645,Q1436645,9.1226 , 48.6388
Q1438203,Q1438203,12.532 , 54.3862
Q470385,Q470385,15.8232 , 48.5765
Q473434,Sønderborg Castle,9.783611111 , 54.906944444
Q473831,Schloss Mosigkau,12.1508 , 51.806
Q473832,Paläontologisches Museum München,11.5638 , 48.1476
Q473848,Dresden Porcelain Collection,13.7346 , 51.0522
Q474171,Fundatiehuis (Teyler),4.63923 , 52.38031
Q474468,Jewish Ceremonial Hall,14.417027 , 50.090027
Q474563,Teylers Museum,4.640278 , 52.380556
Q474841,Gutenberg Museum,8.275277777 , 49.999722222
Q478455,Austrian Museum of Applied Arts,16.381666666 , 48.2075
Q478839,Arizona-Sonora Desert Museum,-111.168055555 , 32.243888888
Q479218,Mémorial de la Shoah,2.356196 , 48.854846
Q479361,Worpswede artist colony,8.93222 , 53.2156
Q483592,Anacostia Community Museum,-76.9769 , 38.8569
Q484899,Velorama,5.869789 , 51.848769
Q485692,Van Deinse Instituut,6.894736 , 52.232453
Q486382,Castel Sant'Angelo,12.466355 , 41.903064
Q488005,National Aviation Hall of Fame,-84.107 , 39.7829
Q488688,Wiertz Museum,4.375833 , 50.837222
Q489413,HMS Unicorn,-2.95851 , 56.4616
Q490825,Evergreen Aviation & Space Museum,-123.143 , 45.2036
Q491297,Nyborg Slot,10.7878 , 55.3138
Q491869,Dokdo Museum,130.8971 , 37.486
Q493160,Ons' Lieve Heer op Solder,4.899363 , 52.375076
Q495247,Blue Penny Museum,57.4975 , -20.1609
Q496259,Veletržní palác,14.432495 , 50.101148
Q499901,Wilhelm-Hack-Museum,8.44407 , 49.4801
Q499902,Parrish Art Museum,-72.3661 , 40.9043
Q501657,Q501657,8.87055556 , 56.485
Q501944,Q501944,14.3345 , 51.7598
Q505873,Vienna Museum,16.3731 , 48.1989
Q506199,Schloss Eckartsa,16.7942 , 48.1406
Q508815,Carnuntum,16.866666666 , 48.116666666
Q510343,Museum Koenig,7.113611 , 50.721944
Q511024,Lumina Domestica,3.22628 , 51.21081
Q512474,Pier 21,-63.5658 , 44.6378
Q516326,Kūtei-kan,140.05381 , 35.71076
Q517430,Museo Chileno de Arte Precolombino,-70.65216944 , -33.43890556
Q518412,Museo Diocesano of Palermo,13.35535833 , 38.11372222
Q520455,Alpine Museum,11.58902222 , 48.13519722
Q522604,Basilica of the Holy Blood,3.226944 , 51.208333
Q523652,Schackgalerie,11.5934 , 48.1423
Q526098,Q526098,11.4193 , 48.7625
Q526903,Sfax Archaeological Museum,10.763925 , 34.732171
Q527433,Q527433,11.11055556 , 46.0725
Q529069,Q529069,7.22122 , 51.4874
Q531028,Moyland Castle,6.23681 , 51.7553
Q534403,European Solidarity Centre,18.649421 , 54.361234
Q535586,Aswan Museum,32.8867 , 24.0847
Q535891,Globe of Gottorf,9.5401 , 54.51735
Q537195,Laogai Museum,-77.0276 , 38.9067
Q538095,Sergei Pavlovich Korolyov Museum of Cosmonautics,28.67758333 , 50.253
Q538183,Q538183,11.0342 , 50.9756
Q538275,National Constitution Center,-75.1489 , 39.9534
Q540718,Worcester Porcelain Museum,-2.219 , 52.1873
Q542084,Vorderasiatisches Museum Berlin,13.39680556 , 52.52069444
Q542231,Mechelen transit camp,4.47833333 , 51.03388889
Q543175,Q543175,7.8269 , 45.7765
Q547789,Maison de Balzac,2.280833333 , 48.855277777
Q549143,Cabinet des Médailles,2.3384 , 48.8678
Q550576,White Tower of Thessaloniki,22.948331 , 40.626357
Q560033,NS Documentation Centre of the City of Cologne,6.95014 , 50.9406
Q561350,Kaliningrad Amber Museum,20.52337778 , 54.72236111
Q565125,Musée alsacien,7.750556 , 48.579167
Q565296,Anne Frank Zentrum,13.4017 , 52.5245
Q569445,Martin-Gropius-Bau,13.381944 , 52.506389
Q570472,Stasi Museum,13.4875 , 52.51444444
Q570620,Kupferstich-Kabinett,13.7369 , 51.0527
Q571728,Deutsches Currywurst Museum,13.3912 , 52.5088
Q571773,Dresden Armory,13.73743 , 51.05254
Q573580,Saxon Railway Museum,12.9678 , 50.8616
Q573656,Schwerin Castle,11.418888888 , 53.624166666
Q573662,Marmorpalais,13.06975 , 52.412672222
Q573672,Märkisches Museum,13.4147 , 52.5136
Q573676,Dragon House,13.0215 , 52.4061
Q573693,King's Gate,20.535833 , 54.713611
Q573932,Museo de las Minas de Bellmunt del Priorat,0.762324 , 41.161318
Q574088,Q574088,13.73635 , 51.05289
Q574690,Q574690,13.3475 , 52.5458
Q574723,Mannheim Palace,8.46177 , 49.4829
Q574923,Q574923,10.4314389 , 61.2269453
Q576074,Museum of Antiquities of the University of Leipzig,12.3783 , 51.3413
Q576077,Q576077,8.81169 , 53.0731
Q576857,Sarmiento historic museum,-58.45430556 , -34.561
Q578060,Longwood House,-5.688389 , -15.944861
Q583055,Bunkamura,139.695 , 35.660833
Q584164,International Museum of the Reformation,6.14833 , 46.20143
Q587617,Mother Teresa Memorial House,21.430876 , 41.993817
Q589092,Q589092,13.5331 , 46.9081
Q589336,Musée Curie,2.34361111 , 48.84416667
Q592625,Q592625,18.6829 , 50.2772
Q593909,Moroccan Jewish Museum,-7.6423557 , 33.5556748
Q595422,Northern Life Museum,-111.888 , 60.0053
Q595802,Museum Plantin-Moretus,4.398163888 , 51.218294444
Q1438357,Q1438357,10.9108 , 48.34
Q1438487,Fort Columbia State Park,-123.919 , 46.26
Q1439257,Q1439257,7.91475 , 51.555
Q1439432,Q1439432,8.74128 , 49.9393
Q1441483,Q1441483,3.872222 , 51.784167
Q1441701,Technical Museum in Brno,16.581443 , 49.228157
Q1443527,Q1443527,7.3624 , 50.247
Q1444540,Q1444540,16.14975278 , -20.10369444
Q1444958,Q1444958,8.612 , 50.1069
Q1445391,Q1445391,10.492336111 , 45.389219444
Q1445881,birthplace of Franz Liszt,16.5291 , 47.5669
Q1448165,Q1448165,11.36523 , 47.650582
Q1448918,Sakai City Museum,135.48425 , 34.55886111
Q1450385,Q1450385,8.45682 , 48.0595
Q1451498,Q1451498,135.611086 , 34.853466
Q1451685,Q1451685,-117.898889 , 33.602778
Q1451822,Bonn Women's Museum,7.09246 , 50.7407
Q1451826,Hittisau Women's Museum,9.96139 , 47.4563
Q1451968,Museo de la Naturaleza y el Hombre,-16.249471 , 28.463946
Q1452442,Q1452442,10.4852 , 48.0463
Q1452533,Q1452533,16.3674 , 48.2062
Q1452723,Q1452723,12.455111 , 41.904389
Q1452731,Vatican Historical Museum,12.5057 , 41.8866
Q1452738,Q1452738,12.477842 , 41.918347
Q1452889,Q1452889,7.63125 , 51.9578
Q1453270,Q1453270,133.771479 , 34.595708
Q1454512,Q1454512,16.2444 , 47.0631
Q1454515,Q1454515,10.8851 , 52.7455
Q1454516,Q1454516,9.41417 , 48.5758
Q1454518,Q1454518,9.00472 , 49.0617
Q1454519,Q1454519,11.88338889 , 50.41476667
Q1454521,Q1454521,11.2864 , 47.6656
Q1454522,Q1454522,8.92872 , 47.98006
Q1454525,Q1454525,12.7344 , 46.847
Q1454526,Q1454526,14.3472 , 46.6857
Q1454528,Q1454528,14.2251 , 47.913
Q1454529,Q1454529,9.90194 , 53.4403
Q1454532,Q1454532,11.9251 , 48.3041
Q1454535,Q1454535,9.47111 , 53.5989
Q1455497,Q1455497,14.5064 , 48.5125
Q1456145,Q1456145,15.4362 , 47.0632
Q1456607,Q1456607,-3.373983 , 47.730672
Q1456860,Q1456860,11.0776 , 49.4612
Q1457173,Q1457173,9.04766 , 54.4757
Q1457383,Q1457383,9.8701 , 51.698
Q1457391,Galerie de Paléontologie et d'Anatomie comparée,2.36283 , 48.8431
Q1457761,Q1457761,11.2634 , 50.6847
Q1457881,Friedrich-Wilhelm-Weber-Museum,9.05361 , 51.7494
Q1458127,Q1458127,16.3081 , 48.029
Q1458988,Q1458988,11.0391 , 50.4267
Q1459154,Q1459154,8.01671 , 49.9545
Q1461968,Q1461968,6.96694 , 51.6591
Q1462107,Város a város alatt,20.3720802 , 47.8998657
Q1462165,Paks Town Museum,18.8650893 , 46.6277737
Q1462216,Q1462216,18.235642 , 46.07617
Q1464783,Q1464783,8.82231 , 54.78
Q1465416,Fritz-Reuter-Literaturmuseum,12.9088 , 53.6953
Q1465938,Nibelungen Museum Worms,8.36703 , 49.6294
Q1466755,Q1466755,9.20913 , 52.6376
Q1466764,Q1466764,10.9753 , 50.2617
Q1467075,Q1467075,9.92139 , 49.7897
Q1467232,Indonesia Museum,106.891442 , -6.300854
Q1467550,Q1467550,6.63472 , 51.3331
Q1469807,Q1469807,15.3288 , 48.22654
Q1470221,Q1470221,12.3381 , 49.8791
Q1470749,Q1470749,-75.550814 , 10.423093
Q1471189,Fränkische Galerie,11.3276 , 50.2444
Q1471212,Q1471212,11.3607 , 49.7858
Q1471250,Q1471250,10.4222 , 49.4972
Q1471252,Q1471252,10.8758 , 49.8933
Q1471331,Q1471331,14.4271 , 51.1802
Q1472169,Q1472169,9.90681 , 47.0931
Q1472193,Foundry Museum,19.0356204 , 47.5114745
Q1472318,Royal Tyrrell Museum of Palaeontology,-112.789278 , 51.479361
Q1472937,Q1472937,10.9044 , 48.3687
Q1473013,Q1473013,7.13889 , 51.2553
Q1473476,Q1473476,13.1715 , 52.6893
Q1474291,Børglum Abbey,9.79916667 , 57.36888889
Q1474539,Rundfunkmuseum Fürth,11.0127 , 49.4687
Q1474915,Museion,11.348429 , 46.497362
Q1475129,Q1475129,14.2668 , 47.9714
Q1478298,Museum of Vancouver,-123.144 , 49.2761
Q1478334,Land of Legends,11.9425 , 55.6158
Q1478423,The Morgan Library & Museum,-73.981556 , 40.748803
Q1479428,Vimanmek Mansion,100.512777777 , 13.773888888
Q1479500,Abgineh Museum of Tehran,51.41505 , 35.693431
Q1479961,Museum Frieder Burda,8.23803 , 48.7579
Q1480930,Q1480930,9.09582 , 48.4529
Q1481121,Q1481121,11.5011 , 48.8103
Q1483277,Q1483277,9.69267 , 52.3921
Q1483375,Q1483375,15.5892 , 48.4053
Q1483635,Q1483635,9.046372 , 52.259846
Q1485176,Q1485176,8.3345 , 48.1263
Q1485888,Q1485888,7.16575 , 51.1972
Q1486738,"Museum of Modern Art, Passau",13.4731 , 48.5744
Q1487537,Q1487537,11.4163 , 48.7677
Q1488682,Q1488682,13.6396 , 48.1871
Q1488700,Powder Tower,14.427777777 , 50.087222222
Q1489486,Q1489486,7.8194 , 49.9112
Q1489852,Pollok House,-4.318222222 , 55.827927777
Q1491563,Italian War History Museum,11.04638 , 45.88634
Q1491909,Q1491909,15.83427072 , 50.20987419
Q1491911,Galerie für Zeitgenössische Kunst,12.3653 , 51.3339
Q1492329,Q1492329,11.044307 , 43.467558
Q1492516,Gallo-Roman Museum,5.46633 , 50.7813
Q1493308,Rocky Mountain House Museum,-114.91555556 , 52.37888889
Q1494361,Q1494361,9.02512 , 48.2123
Q1494393,Q1494393,9.18304 , 48.8975
Q1494401,Q1494401,8.21928 , 48.3155
Q1494978,Maar Museum,6.80722 , 50.0906
Q1495184,Q1495184,13.33705278 , 52.51268333
Q1495508,Q1495508,11.3873 , 47.2146
Q1495745,Q1495745,8.38361 , 49.0014
Q1497540,Q1497540,12.37 , 51.34152
Q1497647,Q1497647,15.661372 , 48.664724
Q1497652,Q1497652,11.7407 , 50.2797
Q1497759,Q1497759,10.3714 , 53.433
Q1498000,Q1498000,11.935 , 50.22
Q1498662,Q1498662,17.08138889 , -22.55944444
Q1499511,Q1499511,8.6619 , 50.1358
Q1499622,Q1499622,20.75066 , 52.130869
Q1501219,Gemäldegalerie Alte Meister,9.41611 , 51.315
Q1501330,Plovdiv Regional Historical Museum,24.753361 , 42.149798
Q1502400,Q1502400,7.61436 , 50.3641
Q1502577,Q1502577,12.0453 , 51.4754
Q1503225,Q1503225,9.97444444 , 53.56805556
Q1503229,Q1503229,7.62314 , 51.9615
Q1503250,Geologisches Museum München,11.5647 , 48.1472
Q1503291,Q1503291,7.62364 , 51.9614
Q1503408,Q1503408,8.13158 , 51.8107
Q1503409,Georg Kolbe Museum,13.25417 , 52.51028
Q1503777,New York Transit Museum,-73.99 , 40.6904
Q1504475,Q1504475,16.2096 , 48.3876
Q1505516,Q1505516,8.96419 , 48.3535
Q1506919,Q1506919,9.1242 , 48.9596
Q1506922,Gustavianum,17.63172222 , 59.85797222
Q1507065,George Bush Presidential Library,-96.3534 , 30.5966
Q1507668,George Johnston Museum,-132.721068 , 60.167951
Q1507811,Teatro Farnese,10.325673 , 44.804574
Q1508725,Hessian State Museum,9.48972 , 51.3108
Q1509302,Georgia Music Hall of Fame,-83.6220714 , 32.8362016
Q1509331,Q1509331,13.7549 , 52.4187
Q1509363,Q1509363,12.2089 , 51.8364
Q1512708,Q1512708,6.89107 , 51.9853
Q1513107,London Dungeon,-0.085833 , 51.505556
Q1513142,Q1513142,21.03905556 , 52.21355556
Q1513549,Inveraray Jail,-5.0725 , 56.23
Q1513620,Tswaing crater,28.082777777 , -25.408888888
Q1514270,Museumpark Orientalis,5.888333 , 51.814167
Q1514593,Q1514593,8.34318 , 48.2904
Q1514687,China National Tea Museum,120.11555556 , 30.23472222
Q1514834,Q1514834,10.333 , 53.6556
Q1515980,Q1515980,10.9489 , 50.2317
Q1516413,Q1516413,8.24779272 , 47.79407229
Q1516470,Q1516470,8.37229 , 52.6036
Q1517435,Q1517435,11.1686 , 48.8948
Q1517744,Q1517744,7.6316 , 51.2138
Q1519078,Ibsen Museum,10.727068 , 59.91505
Q1519128,Newseum,-77.0192 , 38.8932
Q1519226,Q1519226,16.5175 , 47.8462
Q1519288,Sonnenborgh Observatory,5.13 , 52.08667
Q1520230,Gevangenpoort,4.310278 , 52.079444
Q1520447,Q1520447,11.0833 , 49.4517
Q1520695,Q1520695,16.0831 , 47.7227
Q1521070,Q1521070,9.98959722 , 53.54316389
Q1521945,Q1521945,10.9268 , 48.3638
Q1523975,Q1523975,13.5708 , 46.8042
Q1524874,Q1524874,10.04433333 , 53.58483333
Q1525046,Q1525046,11.3292 , 50.9792
Q1525564,Caricatura Museum für Komische Kunst,8.68511 , 50.1102
Q1526140,Regional museum of Messina,15.565041 , 38.217346
Q1526549,Q1526549,13.2867 , 52.5192
Q1527922,Touriseum,11.185305 , 46.660799
Q1527926,Weimarhaus,11.3269 , 50.9793
Q1528467,Q1528467,9.65028 , 49.301
Q1529544,HMY Britannia,-3.1773017 , 55.9821331
Q1529609,Glassworks Museum of the Ore Mountains,13.4622 , 50.6775
Q1529695,Q1529695,9.01921 , 51.7366
Q1529697,Q1529697,13.2983821 , 48.9881114
Q1529698,Q1529698,16.3528 , 48.1939
Q1529702,Q1529702,12.4069 , 48.2074
Q1529703,Q1529703,9.44654 , 49.0378
Q1529704,Q1529704,9.51775 , 49.7582
Q1530105,Q1530105,-19.50083333 , 65.61472222
Q1530823,Q1530823,9.14779 , 51.4877
Q1530830,Q1530830,12.48455833 , 41.89894722
Q1530896,Glenbow Museum,-114.061 , 51.0452
Q1531619,Otto Pankok Museum,6.69972 , 51.71
Q1531837,Q1531837,11.5192 , 51.0269
Q1531912,Q1531912,11.6796 , 51.2234
Q1533444,Q1533444,11.4042 , 47.2333
Q1533621,Q1533621,7.414875 , 51.388013888
Q1534136,Goethe-Nationalmuseum,11.3287 , 50.9776
Q1534191,Q1534191,10.8678 , 50.6358
Q1534447,Q1534447,12.141 , 47.855
Q1534587,Gold Coast Railroad Museum,-80.4007 , 25.6171
Q679527,Museum Boijmans Van Beuningen,4.473056 , 51.914444
Q679689,Bibliothèque Publique et Universitaire,6.145261111 , 46.198888888
Q681497,Stockholm Observatory,18.30833 , 59.27167
Q682069,East Bohemian Museum,15.82899213 , 50.2117349
Q682917,Firepower – The Royal Artillery Museum,0.0708333 , 51.4939
Q684896,Q684896,9.98743 , 53.45522
Q685162,Schwules Museum,13.3579 , 52.5043
Q685524,Miniatur Wunderland,9.988888888 , 53.543888888
Q686109,Wahnfried,11.5822 , 49.9411
Q686443,Department of Planned Languages and Esperanto Museum,16.3653 , 48.2093
Q686488,Weltmuseum Wien,16.3633 , 48.205
Q688335,Deutsches Historisches Museum,13.3969 , 52.5178
Q688423,Q688423,6.854719444 , 46.452683333
Q688677,House of Humour and Satire,25.31783222 , 42.87978511
Q688704,Museum of Natural History,16.359394444 , 48.205133333
Q689196,Neil Armstrong Air and Space Museum,-84.1711 , 40.5639
Q689389,Henry Dunant Museum,9.53141 , 47.4433
Q690012,Q690012,18.225009 , 46.078552
Q690288,Schattenburg,9.59934 , 47.2365
Q690562,Narrow Gauge Railway Museum in Wenecja,17.74944444 , 52.7975
Q693354,Hong Kong Police Museum,114.169197222 , 22.26765
Q694490,Fragrance Museum,6.95792 , 50.93774
Q694810,Sigmund Freud Museum,16.3631 , 48.2186
Q696439,Ter Doest Abbey,3.206944 , 51.283889
Q696790,Wurzen Pass,13.7517 , 46.5233
Q696851,Schloss Hof,16.9372 , 48.2139
Q697030,Burg Güssing,16.3229 , 47.0568
Q697145,Klosterneuburg Monastery,16.3259 , 48.3072
Q697719,Arnulf Rainer Museum,16.2337 , 48.0062
Q699943,Museumsquartier,16.358888888 , 48.203333333
Q700959,Wallraf-Richartz-Museum,6.958611 , 50.9375
Q702551,Schwetzingen Castle,8.56972 , 49.3839
Q702661,Autostadt,10.7919 , 52.4311
Q702726,Jewish Historical Museum,4.903844 , 52.3673
Q703947,Q703947,6.3845 , 50.3529
Q704933,Haus der Kulturen der Welt,13.36527778 , 52.51888889
Q705092,Arskrippana,6.38399 , 50.3524
Q705611,Q705611,8.89833 , 51.9439
Q707407,Grünes Gewölbe,13.7364 , 51.0528
Q707850,Jewish Museum in Prague,14.4211001 , 50.0902854
Q707955,Romano-Germanic Museum,6.958931 , 50.940542
Q712278,Stockholm County Museum,18.12 , 59.305
Q712943,Q712943,7.67444444 , 45.07111111
Q713124,Artis,4.915954 , 52.366205
Q713932,Arts and Industries Building,-77.024494 , 38.88815
Q715467,National Museum of Afghanistan,69.12 , 34.4675
Q716691,Teleki Library,24.5656 , 46.5428
Q722554,Aquincum Museum,19.049816666 , 47.565630555
Q723951,Azerbaijan Museum,46.3 , 38.073333
Q725066,Croatian Railway Museum,15.9841579 , 45.8010567
Q728437,BELvue Museum,4.36049 , 50.84264
Q728990,Mission San Rafael Arcángel,-122.528 , 37.9743
Q729943,Coral Jewellery Museum,14.249433 , 40.83837
Q733790,hôtel de Groesbeeck - de Croix,4.86111 , 50.46336
Q735434,Couven-Museum,6.08487 , 50.7757
Q736465,Déri Museum,21.6221 , 47.5329
Q738549,Muhammad Ali Center,-85.7601 , 38.2582
Q739334,Botanical Garden of Brussels,4.365278 , 50.854722
Q742488,Musée de Notre Dame de Paris,2.35013889 , 48.85333333
Q743773,Tokyo Metropolitan Teien Art Museum,139.719269 , 35.636862
Q743881,Bakhchisaray Palace,33.881944444 , 44.748611111
Q746991,Magnet Museum,7.55452 , 51.4877
Q747287,Q747287,14.388758333 , 50.094225
Q747573,Ferrara Synagogue,11.621754 , 44.83422
Q747844,"Nikolaj, Copenhagen Contemporary Art Center",12.58138889 , 55.67861111
Q748371,Q748371,9.34241 , 48.6246
Q749556,Yasnaya Polyana,37.523203 , 54.069503
Q751987,Masmak fort,46.7133 , 24.6311
Q754053,Q754053,5.44611111 , 43.53888889
Q756098,Royal Castle,21.014166666 , 52.247777777
Q756700,Atlantis Childrens' Museum,6.77028 , 51.4403
Q760547,Q760547,10.9358 , 48.3464
Q760835,Q760835,-0.368173 , 49.181
Q765870,Q765870,10.6072 , 55.0638
Q768259,Musei di San Domenico,12.0351812 , 44.2214061
Q768544,Q768544,11.8935 , 47.4406
Q769416,Australian Museum,151.213 , -33.8743
Q769765,Hecht Museum,35.017977777 , 32.763477777
Q770826,African American Museum in Philadelphia,-75.1516 , 39.9528
Q771841,Aulestad,10.265952 , 61.2173
Q772890,Galleria nazionale di Parma,10.32638889 , 44.80527778
Q774118,Pinacothèque de Paris,2.32575 , 48.87069444
Q774940,Pinacoteca Vaticana,12.45277 , 41.90573
Q775037,János Arany Memorial Museum,21.663318 , 46.802366
Q775644,Rubenshuis,4.409444444 , 51.217222222
Q776086,Budapest History Museum,19.04055556 , 47.49527778
Q778186,Q778186,12.65261111 , 42.55880556
Q780581,Q780581,13.3967 , 52.5189
Q781603,Australian Opal Centre,147.975675 , -29.428841
Q782003,Musée archéologique,7.752222 , 48.581111
Q783538,Austrian Aviation Museum,16.4679 , 48.1398
Q785223,Mummies of Guanajuato,-101.26638889 , 21.02
Q785923,Burg Schlaining,16.2803 , 47.3222
Q787840,Q787840,13.745 , 51.0603
Q787842,Q787842,11.8557 , 49.9979
Q787847,Q787847,9.79335 , 47.8221
Q787940,Q787940,9.00406 , 52.7754
Q787944,Q787944,8.33767 , 52.2097
Q789163,Bálint Balassa Museum,18.7358565 , 47.7979974
Q1534815,Q1534815,8.26778 , 50.00385
Q1535025,Q1535025,7.58736 , 50.3509
Q1536845,Q1536845,9.83753 , 52.9869
Q1536873,Q1536873,16.35 , 48.2131
Q1537684,Queensland Museum,153.017423 , -27.473173
Q1538571,Wanping Fortress,116.22 , 39.85
Q1538748,Q1538748,10.7122 , 50.9431
Q1538826,Musée des Arts et Métiers,2.355277777 , 48.866111111
Q1539491,Historical Museum Bamberg,10.8824 , 49.8909
Q1540177,Navy Museum,-9.20813889 , 38.69709722
Q1540399,Q1540399,8.35564 , 52.6512
Q1540630,Theatermuseum Düsseldorf,6.78133 , 51.2301
Q1541023,Q1541023,8.23925 , 46.8682
Q1541344,Q1541344,9.08694 , 48.7858
Q1541549,Q1541549,11.635613 , 50.36536
Q1541857,Q1541857,9.51811 , 49.7596
Q1542426,Q1542426,13.7042 , 46.8026
Q1542695,Royal British Columbia Museum,-123.367777777 , 48.419444444
Q1543384,Q1543384,7.60944 , 51.9729
Q1543522,Grassi Museum,12.3883 , 51.3374
Q1543579,Q1543579,13.8008 , 51.035
Q1543972,Gravensteen,3.720556 , 51.057222
Q1543996,Q1543996,9.959831 , 53.547652
Q1545812,Sorge Border Museum,10.6859 , 51.6949
Q1546319,Graeco-Roman Museum,29.9069 , 31.1993
Q1547331,Musée Hergé,4.6116 , 50.66777
Q1547444,Q1547444,13.5192 , 52.4602
Q1548121,Q1548121,14.7226 , 48.3184
Q1548656,Q1548656,12.0778 , 52.8267
Q1549317,Q1549317,8.65347 , 49.8796
Q1550018,Q1550018,14.3124 , 46.6209
Q1550167,Zeche Theresia,7.324444444 , 51.428611111
Q1550590,Q1550590,11.4933 , 48.713
Q1551641,Q1551641,8.32861 , 52.2058
Q1551805,Q1551805,13.5875 , 52.4119
Q1551866,Q1551866,13.6139 , 52.5024
Q1552095,Q1552095,9.69492 , 53.4051
Q1552368,Q1552368,12.7561 , 50.5048
Q1552844,Q1552844,13.9036 , 51.0267
Q1552914,Q1552914,10.6185 , 54.1376
Q1555947,Q1555947,8.54762 , 50.1022
Q1556881,Q1556881,6.26384 , 50.5692
Q1558839,Q1558839,10.8927 , 49.8994
Q1558875,Q1558875,12.5705 , 48.8836
Q1559225,Q1559225,9.77722 , 47.39
Q1560511,Günter Grass House,10.69 , 53.8694
Q1561202,Q1561202,15.3169 , 46.8233
Q1562741,Q1562741,6.89883 , 50.9448
Q1564668,Q1564668,10.3245 , 50.9798
Q1566001,Q1566001,20.454722222 , 44.820833333
Q1566920,Q1566920,10.141 , 54.3244
Q1566931,Q1566931,12.08641944 , 50.87560833
Q1566953,Q1566953,9.31944444 , 47.67396111
Q1567452,Q1567452,9.48785 , 51.3181
Q1567666,Q1567666,13.744 , 51.0507
Q1567953,Q1567953,8.77147 , 53.0965
Q1568259,Q1568259,11.0356 , 50.7719
Q1568434,Yale University Art Gallery,-72.931 , 41.3085
Q1568666,"Hagia Sophia, Trabzon",39.696111111 , 41.003333333
Q1568821,"Museo Nacional de Arqueología, Antropología e Historia del Perú",-77.061746 , -12.076814
Q1569018,Rungstedlund,12.5433 , 55.8833
Q1569133,Q1569133,11.6014 , 48.1338
Q1569444,Mütter Museum,-75.1767 , 39.9533
Q1569855,Q1569855,7.61389 , 51.9617
Q1569953,Q1569953,9.53857 , 46.8467
Q1570294,Museum of Romani Culture,16.6241 , 49.2007
Q1570675,Q1570675,9.74444 , 47.4994
Q1571630,Q1571630,11.6127 , 48.6842
Q1571828,Hallors and Saline Museum,11.9596 , 51.4822
Q1571914,Rupertinum Salzburger Landessammlungen,13.0439 , 47.7981
Q1572840,Q1572840,16.6949 , 48.4043
Q1573125,Q1573125,9.96333333 , 53.55055556
Q1573230,Q1573230,10.0012 , 53.5454
Q1573755,M HKA,4.389722222 , 51.211111111
Q1575234,Q1575234,6.87719 , 50.4719
Q1575308,Q1575308,6.6215 , 51.8312
Q1575385,Q1575385,9.68861 , 47.3647
Q1575394,Hemp Museum,13.4081 , 52.5167
Q1575530,Q1575530,6.73325 , 51.4513
Q1576733,Hortus Botanicus,4.908441666 , 52.366969444
Q1576734,Cultural Center East Prussia,10.96416 , 49.06076
Q1577265,Q1577265,16.5708 , 48.5753
Q1577600,Hyde Park Barracks,151.212 , -33.8694
Q1577723,Valencian Museum of Ethnology,-0.383128 , 39.478422
Q1582152,House of Folklore,44.19944444 , 15.34833333
Q1582462,Museum of Independence,21.00416667 , 52.24527778
Q1584223,Q1584223,15.9725 , 47.3786
Q1584857,Theatrical Museum of Greece,23.73436111 , 37.98166667
Q1585931,Villa Medici,10.87916667 , 43.75861111
Q1586390,Museum of the Occupation of Latvia,24.1063643 , 56.9470925
Q1586468,Q1586468,9.65583 , 53.6821
Q1586925,Q1586925,9.61758056 , 52.67246944
Q2406637,Q2406637,3.56611 , 47.7953
Q2407356,Q2407356,11.2494 , 43.7651
Q2407603,Musée des Lettres et Manuscrits,2.3276 , 48.8555
Q2407925,Q2407925,6.2609 , 51.3447
Q2407936,Q2407936,7.9055 , 47.6297
Q2408607,Kirbuster Farm Museum,-3.25415 , 59.1097
Q2411005,Q2411005,3.51 , 51.513611
Q2412016,Maastricht Natural History Museum,5.68769 , 50.84498
Q2412294,The Kennedys,13.3833 , 52.5167
Q2414262,Q2414262,-6.3689 , 57.660257
Q2415229,Q2415229,2.63536 , 48.5347
Q2418618,Casa Buonarroti,11.263758 , 43.769903
Q2419924,Q2419924,6.54 , 53.203
Q2420675,musée archéologique départemental du Val-d'Oise,1.84944 , 49.1086
Q2422478,Museum of the Portuguese Language,-46.63661667 , -23.53503333
Q2423105,Q2423105,5.47445 , 51.66572
Q2424070,Letohrádek královny Anny,14.405416666 , 50.093611111
Q2425770,Huis Van Gijn,4.66411 , 51.81659
Q2426244,Carnegie Science Center,-80.0182 , 40.4456
Q2428768,Q2428768,8.78784 , 51.0519
Q2429440,"Waag, Deventer",6.159722 , 52.251389
Q2430178,Q2430178,14.51377 , 48.524545
Q2430787,Q2430787,11.1647 , 50.8891
Q2430867,Thüringer Museum für Elektrotechnik,11.0443 , 50.9884
Q2430878,Q2430878,11.1958 , 50.9574
Q2432540,Old St. John's Hospital,3.22284 , 51.203892
Q2433358,Q2433358,10.7745 , 52.1468
Q2435525,Q2435525,2.4669 , 50.8811
Q2435716,Turtle Bay Exploration Park,-122.378 , 40.5911
Q2436218,Q2436218,11.4011 , 47.2508
Q2436269,Tiroler MuseumsBahnen,11.3981 , 47.2528
Q2436387,Museum de Fundatie,6.09128 , 52.51019
Q2436390,Eerste Friese Schaatsmuseum,5.40092 , 52.94175
Q2438737,Q2438737,8.555574 , 55.165309
Q2441502,Q2441502,7.7655 , 50.4855
Q2442004,Q2442004,15.1584 , 48.0159
Q2442464,Lambert van Meerten Museum,4.354444 , 52.013333
Q2443934,Q2443934,7.72519 , 53.4181
Q2445274,Coal mine museum Valkenburg,5.82566 , 50.85629
Q2445818,Musée de La Poste,2.31626 , 48.8412
Q2446455,Q2446455,6.17095 , 51.368017
Q2447114,Q2447114,6.15139 , 53.27972
Q2447629,Q2447629,5.878239 , 51.841986
Q2448543,"Mariemont, Belgium",4.24057 , 50.46784
Q2448625,Graz Tramway Museum,15.4891 , 47.1057
Q2449709,Musée de la Contrefaçon,2.27694444 , 48.87044444
Q2451046,Poptaslot,5.72896 , 53.20971
Q2454010,Sasmita Loka Ahmad Yani Museum,106.83656667 , -6.20458611
Q2459096,Mueller Cloth Mill,6.8233 , 50.6491
Q2459104,Q2459104,7.97802 , 52.405
Q2459113,Q2459113,7.26044 , 51.1935
Q2459642,Q2459642,5.563333 , 51.422222
Q2460439,Q2460439,10.9268 , 48.3638
Q2464072,Q2464072,6.35539 , 50.8159
Q2464080,Q2464080,8.186 , 50.6853
Q2464088,Q2464088,16.4776 , 47.5285
Q2464610,Uniastate,5.731956 , 53.156344
Q2464878,Tibet Museum,76.32229 , 32.2052
Q2468128,Hortus Botanicus Leiden,4.484167 , 52.156111
Q2470666,Kızıl Kule,31.998308333 , 36.536444444
Q2470853,Africa Museum,5.909444 , 51.8125
Q2471860,Koeleweimolen,3.234211 , 51.219917
Q2474174,Uhrenindustriemuseum,8.5306 , 48.0645
Q2474178,Q2474178,16.3689 , 48.2108
Q2474182,Q2474182,8.04639 , 52.1583
Q2475379,Ulmer Museum,9.99481 , 48.397
Q2478313,musée d'Ansembourg,5.58209 , 50.64704
Q2479640,Q2479640,6.395556 , 53.1675
Q2482757,musée Tchantchès,5.58154 , 50.6392
Q2483022,Q2483022,5.0675 , 53.29528
Q2483656,North Carolina Museum of Natural Sciences,-78.6394 , 35.7822
Q2485044,Q2485044,4.77164 , 51.76537
Q2486431,Museo del Baile Flamenco (Sevilla),-5.99111111 , 37.38888889
Q2487153,Q2487153,4.7996 , 51.547033
Q2490616,Q2490616,22.13816667 , 65.58216667
Q2490659,Q2490659,5.32006 , 51.73056
Q2491109,Maagdenhuis,4.40549 , 51.21401
Q2491328,Veenkoloniaal Museum,6.87584 , 53.10707
Q2492233,Mahymobiles,3.6051136 , 50.5976017
Q2494394,Q2494394,12.338 , 51.3314
Q2495870,University of Michigan Museum of Art,-83.7405 , 42.2752
Q2496198,White Dacha,34.1416 , 44.4911
Q2496472,Yokohama Anpanman museum,139.625444444 , 35.458555555
Q2496473,Public Transit Museum Doetinchem,6.293503 , 51.958733
Q2153365,Zeeuws Museum,3.61472 , 51.50083
Q2155567,Q2155567,5.43722 , 52.52111
Q2155831,Q2155831,5.94139 , 53.13139
Q2156263,Robert Schumann House,12.4965 , 50.7176
Q2157528,Oman Natural History Museum,58.4231 , 23.5989
Q2157583,"Museum ""Het Tramstation""",4.31846 , 51.97607
Q2157822,Badd Giacaman Museum,35.20356667 , 31.70592222
Q2157892,Corgarff Castle,-3.2342 , 57.1628
Q2160723,Q2160723,11.5536 , 48.1744
Q2163496,Museum of Fine Arts of Seville,-5.99972222 , 37.3925
Q2164959,Romantikerhaus,11.5897 , 50.9273
Q2166962,Q2166962,4.851586 , 51.946892
Q2167145,Q2167145,8.74744 , 50.1018
Q2167344,Rosgartenmuseum,9.17479 , 47.6599
Q2168069,Museum Møhlmann,6.836667 , 53.32
Q2168498,Q2168498,6.24085 , 50.5547
Q2168814,Q2168814,11.095 , 49.4583
Q2168818,Q2168818,13.3267 , 52.4743
Q2168820,Q2168820,6.44806 , 50.5875
Q2168825,Q2168825,11.095 , 49.4583
Q2170093,Q2170093,5.31053 , 51.6894
Q2170763,Amsterdam Municipal Archives,4.8923 , 52.3646
Q2170950,Royal Alberta Museum,-113.544061 , 53.542239
Q2174973,Q2174973,10.3674 , 50.9029
Q2178225,Q2178225,0.837096 , 44.974529
Q2179520,Q2179520,11.3977 , 48.9488
Q2179604,Q2179604,12.4768 , 47.9333
Q2179608,Museum Castrum Boiotro,13.4624 , 48.5698
Q2179612,Q2179612,9.14828 , 49.8402
Q2179613,Q2179613,12.543916666 , 47.843138888
Q2179617,Q2179617,16.0571 , 48.3333
Q2179618,Q2179618,16.0571 , 48.3333
Q2179619,Q2179619,9.8333 , 48.269
Q2179623,Römermuseum Schwarzenacker,7.31663 , 49.2828
Q2180455,Q2180455,4.43694 , 52.25139
Q2185798,Kantcentrum,3.23383 , 51.21232
Q2186504,Q2186504,5.3449 , 51.97059
Q2187433,Museum of South Texas History,-98.1614 , 26.3028
Q2188694,Museum François Duesberg,3.94611111 , 50.45416667
Q2190649,Gayer-Anderson Museum,31.2507 , 30.0284
Q2191087,Hollandsche Manege,4.87222 , 52.36083
Q2191110,Museum Van Loon,4.89278 , 52.36333
Q2193486,Q2193486,5.061395 , 52.638352
Q2193739,Q2193739,4.47222 , 51.91556
Q2195107,Museum voor Stenen Voorwerpen,3.73611 , 51.05389
Q2198718,Q2198718,6.12472 , 52.40028
Q2201410,World of Coca-Cola,-84.3928 , 33.7628
Q2201512,Q2201512,5.96861 , 51.70194
Q2201887,Q2201887,6.00042 , 53.20403
Q2202627,Q2202627,10.901 , 48.3652
Q2202633,Q2202633,9.36028 , 48.6772
Q2203052,TwentseWelle,6.894736 , 52.232453
Q2204914,museum of old techniques,4.37139 , 50.9275
Q2206674,Musée Maritime du Québec,-70.3714 , 47.1287
Q2209265,Saarländisches Karnevalsmuseum,7.12141 , 49.2815
Q2209383,Sabah Museum,116.071666666 , 5.960555555
Q2210331,Sakharov Center,37.65879389 , 55.751158
Q2210810,Q2210810,9.11039 , 51.8049
Q2215263,Salsali Private Museum,55.225654 , 25.139962
Q2215893,Q2215893,13.0176 , 47.6383
Q2215938,Q2215938,13.0431 , 47.8045
Q2215955,Q2215955,12.9451 , 47.7518
Q2216035,Q2216035,13.0304 , 47.7966
Q2216083,Archéoforum,5.573 , 50.64545
Q2216121,SKGLB Museum,13.350228 , 47.830669
Q2216180,Q2216180,9.96523 , 51.269
Q2216754,Museum Bredius,4.31266 , 52.08125
Q2217216,Q2217216,9.80313 , 53.6595
Q2217345,Essl Collection,16.3333 , 48.3014
Q2217376,Q2217376,9.04788889 , 44.38138889
Q2218604,Aceh Tsunami Museum,95.31508333 , 5.54772222
Q2218690,Pijpenkabinet & Smokiana,4.88575 , 52.363861
Q2220539,Q2220539,9.98172 , 49.2049
Q2221305,Q2221305,7.15462 , 52.3032
Q2222068,Sankt-Pauli-Museum,9.96241667 , 53.54841667
Q2224691,Press Museum,4.94028 , 52.3692
Q2229471,Q2229471,12.1517 , 51.6549
Q2231836,Q2231836,14.5686 , 46.9344
Q2233016,Pier Pander Museum,5.79333 , 53.205
Q2234918,Q2234918,9.05106 , 54.4754
Q2234922,Q2234922,8.48451 , 53.3264
Q2235014,Q2235014,9.159 , 49.7969
Q2235030,Q2235030,6.77111 , 51.2275
Q2235692,Q2235692,9.25485 , 48.9356
Q2235725,Q2235725,10.107 , 48.7851
Q2235783,Schiller's garden house,11.5833 , 50.9258
Q2235841,Q2235841,13.903 , 51.0488
Q2239098,Q2239098,7.44333 , 52.0172
Q2239236,Q2239236,14.99059796 , 51.15611314
Q2239241,Silesian Museum,19.022767 , 50.260581
Q2239322,Q2239322,10.079 , 54.2752
Q2239531,Q2239531,7.33007 , 51.6186
Q2240259,Q2240259,10.21222222 , 53.48972222
Q2240265,Q2240265,8.389844444 , 51.048769444
Q2240587,Q2240587,14.56419417 , 50.14935694
Q2240951,Q2240951,1.41686 , 50.0494
Q2241286,Q2241286,14.8531 , 48.2264
Q1587142,Q1587142,12.6317 , 47.8669
Q1587375,Q1587375,12.0827 , 49.0221
Q1587628,National Museum of Ceramics,2.224925 , 48.82886944
Q1587883,Q1587883,13.4758 , 48.5027
Q1588383,Q1588383,16.3229 , 48.306
Q1589153,Q1589153,9.65807 , 53.6847
Q1589955,Q1589955,13.2317 , 48.2453
Q1590096,Q1590096,6.08541 , 50.7788
Q1590279,Museum B.C. Koekkoek-Haus,6.13775 , 51.79
Q1590355,Q1590355,7.308333333 , 51.291527777
Q1590419,Japanese American National Museum,-118.239 , 34.0496
Q1590486,Q1590486,6.876083333 , 51.420777777
Q1590554,Museum of the Polish Peasant Movement,21.034083 , 52.177526
Q1590762,Q1590762,12.6415 , 51.8663
Q1590782,Q1590782,16.3741 , 48.1648
Q1590790,Haus der Natur Salzburg,13.0392 , 47.8017
Q1590812,Q1590812,8.7616 , 50.1084
Q1590890,House of the Heiligenstadt Testament,16.3562 , 48.2548
Q1591410,Hauteville House,-2.5377 , 49.4513
Q1591860,Haydn-Haus,16.5228 , 47.8472
Q1592349,Q1592349,10.7058 , 50.9433
Q1592679,Q1592679,8.9239 , 54.2128
Q1593387,Q1593387,12.6899 , 48.6687
Q1594074,Q1594074,10.7493 , 50.5092
Q1595523,Q1595523,7.14404 , 51.5429
Q1595524,Q1595524,13.7935 , 51.0074
Q1595527,Q1595527,8.83575 , 49.175
Q1595589,Q1595589,7.83799 , 53.4539
Q1595593,Q1595593,14.5344444 , 50.6858333
Q1595612,Q1595612,10.2809 , 47.4062
Q1595616,Q1595616,8.08825 , 48.355
Q1595621,Q1595621,12.8828 , 48.0448
Q1595631,Q1595631,7.88569 , 50.8071
Q1595633,Q1595633,7.45003 , 53.2259
Q1595635,Q1595635,11.8641 , 48.5496
Q1595642,Q1595642,9.79064 , 48.5422
Q1595643,Q1595643,10.1074 , 52.5544
Q1595644,Q1595644,10.2826 , 54.2366
Q1595647,Q1595647,8.72636 , 50.1434
Q1595648,Q1595648,8.65167 , 50.2436
Q1595651,Q1595651,12.3537 , 48.4495
Q1595653,Q1595653,12.0873 , 54.1765
Q1595654,Q1595654,9.56426 , 52.2721
Q1595655,Q1595655,9.2067 , 48.7844
Q1595656,Q1595656,9.40609444 , 51.03411944
Q1595658,Q1595658,9.01221 , 48.6852
Q1595659,Q1595659,13.5367 , 51.05
Q1595660,Q1595660,10.8689 , 48.3431
Q1595663,Q1595663,9.1462 , 48.7274
Q1596362,Q1596362,10.8317 , 52.4014
Q1596454,Q1596454,12.958 , 53.4839
Q1596464,Q1596464,11.9709 , 51.1996
Q1600696,Q1600696,8.73564 , 51.7314
Q1601079,Q1601079,9.8696 , 50.4893
Q1601838,Spencer Museum of Art,-95.2446 , 38.9597
Q1602945,Jedburgh Castle,-2.558888888 , 55.474166666
Q1604002,Moscow House of Photography,37.60252778 , 55.78136111
Q1604378,Q1604378,15.4042 , 48.8834
Q1604698,Q1604698,7.70113889 , 51.38958056
Q1605120,Q1605120,12.893 , 46.975
Q1605655,Q1605655,9.93171 , 49.7936
Q1606092,Henrichshütte,7.188333333 , 51.4075
Q1606134,Henriette-Davidis-Museum,7.342944444 , 51.40125
Q1607050,Q1607050,11.32619444 , 51.97544444
Q1607521,Q1607521,14.762 , 48.3131
Q1607583,Hensley Settlement,-83.528333 , 36.669444
Q1607597,Q1607597,8.82915 , 52.8669
Q1609990,Q1609990,9.06056 , 52.465
Q1610410,Q1610410,8.73768 , 48.7151
Q1610464,Hermann Oberth Space Travel Museum,11.211666666 , 49.375
Q1613242,Q1613242,0.207584 , 49.705964
Q1614039,Q1614039,13.60222222 , 59.39833333
Q1614375,Hannover History Museum,9.73139 , 52.3719
Q1615129,Kunsthalle Wilhelmshaven,8.12278 , 53.5219
Q1615331,Herzogliches Museum,10.7058 , 50.9433
Q1615340,Museum of Abensberg,11.8456 , 48.8147
Q1615855,Q1615855,14.3102 , 46.624
Q1615965,Q1615965,9.26722 , 51.0506
Q1616115,Het Schip,4.873233 , 52.390514
Q1616272,Q1616272,6.77111 , 51.2239
Q1616741,Q1616741,8.89972 , 52.025
Q1617464,Q1617464,30.29443611 , 59.95525833
Q1618662,Q1618662,8.50187 , 50.5534
Q1619050,Himeyuri Peace Museum,127.6903303 , 26.0963537
Q1619084,Palais Longchamp,5.3945 , 43.3043
Q1619829,Museum Niederösterreich,15.6317 , 48.2
Q1620006,Q1620006,10.3576 , 48.2529
Q1620822,Q1620822,13.36853889 , 52.09909444
Q1620872,Historische Kornbrennerei Bimberg,7.66404 , 51.457
Q1620991,Q1620991,7.48042 , 53.4693
Q1620996,Q1620996,6.99156 , 49.23
Q1620998,Q1620998,8.89242 , 50.1274
Q1621000,Q1621000,8.54417 , 52.0224
Q1621007,Historical Museum of Bosnia and Herzegovina,18.4013 , 43.8552
Q1621030,Q1621030,8.21259141 , 49.50546424
Q1621200,Tsarskoye Selo,30.415833333 , 59.723333333
Q1623190,Q1623190,11.6489 , 48.9721
Q1623194,Imperial Furniture Museum,16.3468 , 48.1984
Q1623755,Hohenloher Freilandmuseum Wackershofen,9.697980555 , 49.1356
Q789964,Q789964,7.249444444 , 51.407777777
Q790536,Q790536,19.0288443 , 47.419375
Q790845,Q790845,13.5056 , 52.4403
Q796045,Lindholm Høje,9.9125 , 57.077222222
Q796764,Beit Hatfutsot,34.805261111 , 32.113811111
Q798175,Bach House,10.322611111 , 50.971491666
Q798883,Bad Elster Spa Museum,12.2394 , 50.2833
Q799168,State Museum of Baden,8.40444 , 49.0136
Q799737,Baelo Claudia,-5.774611 , 36.089861
Q799878,Q799878,14.9579 , 51.06758889
Q800659,Q800659,16.5644 , 48.3031
Q801775,Q801775,7.194008333 , 46.977427777
Q802016,Q802016,8.830251 , 53.630265
Q803741,Q803741,12.2947 , 49.0209
Q803830,Bailiandong site,109.42777778 , 24.21361111
Q804216,Q804216,12.7374 , 47.9341
Q804288,Q804288,7.5864 , 51.1383
Q805262,BallinStadt,10.01694444 , 53.52055556
Q805329,Ballonmuseum Gersthofen,10.8757 , 48.4258
Q805935,Q805935,14.0925 , 46.7225
Q805947,Q805947,10.883 , 49.8923
Q806121,Museum of Banat,21.22709722 , 45.753175
Q806381,Q806381,7.14009 , 51.2295
Q806615,Bank Austria Kunstforum Wien,16.3662 , 48.2115
Q806890,Banning House,-118.257222 , 33.790278
Q808119,Barfüsserkirche,7.590591666 , 47.554458333
Q808531,Barnum's American Museum,-74.0086 , 40.7112
Q811257,Q811257,9.788614 , 47.820953
Q811265,Q811265,15.1411 , 46.8472
Q811266,Q811266,13.2522 , 49.0355
Q811267,Q811267,7.250777777 , 51.408333333
Q811279,Q811279,11.2065 , 48.116
Q811287,Q811287,16.084 , 48.6445
Q811288,Q811288,13.3553 , 47.8553
Q811291,Q811291,7.58125 , 50.9572
Q811292,Q811292,8.94003 , 49.1708
Q811293,Q811293,13.8991 , 52.0272
Q811526,Q811526,7.40722 , 51.9793
Q811871,Q811871,9.46103 , 49.0802
Q812396,Q812396,11.4302 , 48.7648
Q812397,Q812397,11.4683 , 50.1147
Q812400,Bavarian Railway Museum,10.4995 , 48.8503
Q812435,Q812435,11.4353 , 48.7624
Q812599,Q812599,11.5669 , 49.9501
Q813225,Beatlemania Hamburg,9.95686111 , 53.55005556
Q813227,Q813227,11.9683 , 51.4802
Q813892,Bedford Village Archeological Site,-78.510667 , 40.042
Q813969,Bedřich Smetana Museum,14.412972 , 50.085417
Q815443,Belfry of Ghent,3.725 , 51.053611
Q819357,Q819357,7.447638888 , 51.596080555
Q819393,Q819393,12.0473 , 49.8382
Q819398,Q819398,11.9107 , 49.3865
Q819427,Q819427,6.64918 , 50.5864
Q819429,Q819429,8.06282 , 51.1285
Q819431,Q819431,7.91692 , 50.7701
Q819858,Q819858,7.16458 , 50.9649
Q819860,Bergische Museumsbahnen,7.11222222 , 51.19138889
Q821308,Q821308,13.3956 , 52.5014
Q821594,Nietzsche-Haus,11.8126 , 51.15
Q821643,Q821643,13.3789 , 52.5236
Q821832,Q821832,13.2506 , 52.5167
Q822101,National Historical Museum,23.73277778 , 37.9775
Q823031,Estonian Literary Museum,26.717881 , 58.3739306
Q824940,Mon Repos,19.92583333 , 39.60611111
Q826149,Schwarzenberg Castle,12.7873 , 50.5375
Q826520,Bishop Museum,-157.870617 , 21.333333
Q826824,Palanga Amber Museum,21.055833 , 55.906944
Q827564,Hildesheim Cathedral Museum,9.94744 , 52.1488
Q827605,Q827605,20.52205556 , 54.69533056
Q827778,Zigong Dinosaur Museum,104.82611111 , 29.39888889
Q827832,Q827832,8.70363 , 48.4371
Q828334,Q828334,13.7433 , 51.0528
Q829296,Saarland Museum,6.99992 , 49.2308
Q830164,Museum Kunst der Westküste,8.51 , 54.7082
Q830476,East Prussian State Museum,10.40744444 , 53.24619444
Q830675,Langen Foundation,6.644611111 , 51.152383333
Q831411,Q831411,8.3837 , 49.0002
Q831613,Q831613,13.7689 , 51.0533
Q832438,Das Kartoffelmuseum,11.60580556 , 48.12555556
Q832762,Museum Godeffroy,10.000906 , 53.546249
Q833817,Friedrichswerder Church,13.397222 , 52.515833
Q834183,Landesmuseum Mainz,8.26778 , 50.00385
Q839312,Musée de l'Aventure Peugeot,6.83138889 , 47.51628333
Q839424,musée des transports en commun de Liège,5.582878 , 50.629033
Q839985,Museum of Jewish Heritage,-74.01875 , 40.70621
Q840284,Museum of Broadcast Communications,-87.62845516 , 41.88921173
Q840618,Eretz Israel Museum,34.796416666 , 32.103152777
Q841018,North Atlantic House,12.59658694 , 55.67768725
Q842525,Museum of Macau,113.541684 , 22.197205
Q842660,Constantin Meunier Museum,4.36722222 , 50.81916389
Q843955,Lei Cheng Uk Han Tomb Museum,114.160022222 , 22.338094444
Q846317,Pars Museum of Shiraz,52.545 , 29.616008333
Q846592,Paleozoological Museum of China,116.32777778 , 39.93625
Q847038,National Mint of Bolivia,-65.75416667 , -19.58861111
Q847637,Kansas Cosmosphere and Space Center,-97.9213 , 38.0653
Q848313,Fries Museum,5.79444 , 53.19972
Q849489,Chora Church,28.939167 , 41.031111
Q850268,Tuol Sleng Genocide Museum,104.917777777 , 11.549444444
Q851527,Oceanographic Museum,7.425277777 , 43.730833333
Q853259,Q853259,18.735 , 47.726388888
Q2241346,Q2241346,4.74372 , 51.57817
Q2241369,Güstrow Castle,12.1778 , 53.7908
Q2241600,Q2241600,14.3562 , 48.1991
Q2241822,Openluchtmuseum Bachten de Kupe,2.655131 , 50.993192
Q2242046,Langenstein Castle,8.90277778 , 47.84277778
Q2242140,Q2242140,15.2841 , 48.2434
Q2242447,Mittersill castle,12.4853 , 47.2833
Q2242558,Q2242558,10.5032 , 46.8871
Q2242969,Q2242969,14.5155 , 48.2405
Q2243164,Q2243164,14.4039 , 48.3681
Q2243344,Q2243344,13.9636 , 47.9058
Q2243586,Q2243586,14.0236 , 48.3113
Q2243645,Q2243645,4.722056 , 49.775725
Q2243894,Q2243894,16.3427 , 48.1208
Q2244188,Q2244188,16.6456 , 48.5853
Q2244607,Q2244607,9.14167 , 49.9761
Q2244612,Q2244612,7.90306 , 53.5722
Q2244615,Q2244615,13.8711 , 51.0083
Q2244617,Q2244617,11.1352 , 51.7859
Q2244892,Q2244892,12.9151 , 50.8451
Q2244929,Q2244929,11.2028 , 47.6775
Q2245203,MIAT,3.72869 , 51.05999
Q2246299,Q2246299,6.14306 , 52.89167
Q2246388,Schmiede- und Schlossermuseum Schwalbach,6.79741667 , 49.295
Q2246668,Q2246668,8.69755 , 48.8861
Q2246858,Q2246858,4.85217 , 51.94719
Q2248967,De School van Toen,3.71712 , 51.05585
Q2250555,Q2250555,9.78469 , 48.4143
Q2251361,Q2251361,7.413936111 , 46.920977777
Q2251367,Q2251367,12.5441 , 52.3363
Q2251368,Q2251368,7.21333 , 51.5136
Q2251849,Q2251849,7.07728 , 50.7243
Q2252001,Q2252001,12.3924 , 43.1069
Q2252185,Q2252185,9.526627777 , 46.84625
Q2253247,Musée Archéologique de Namur,4.86809 , 50.46223
Q2254559,Black Forest Open Air Museum,8.196802 , 48.27183
Q2254735,Q2254735,9.47722 , 53.6039
Q2255375,Musée Pasteur,2.31139 , 48.84028
Q2255673,Q2255673,9.21989 , 48.7857
Q2256848,Q2256848,11.7988 , 48.2217
Q2257001,Volkssterrenwacht Mira,4.369167 , 50.934722
Q2257327,Q2257327,5.863056 , 51.818911
Q2257381,Q2257381,4.75527778 , 52.62916667
Q2258057,Q2258057,10.9039 , 48.36
Q2258062,Q2258062,10.4852 , 48.0463
Q2259810,Kunsthal Sint-Pietersabdij,3.727058 , 51.042131
Q2259902,Schüttesäge Museum,8.34377 , 48.2905
Q2261423,Museum of Pavilions,5.224167 , 52.373889
Q2262691,Q2262691,3.91253 , 51.31213
Q2263119,Carnegie Museums of Pittsburgh,-79.9506 , 40.4428
Q2264019,Manitoba Museum,-97.1367 , 49.9
Q2264191,Napoleon Museum,7.42013 , 43.73126
Q2264518,Musée National de Monaco,7.43051 , 43.74439
Q2264792,Q2264792,6.18889 , 52.69667
Q2265011,Q2265011,7.15944 , 53.6128
Q2265733,National Football Museum,-2.241944444 , 53.485555555
Q2265849,Etnografisch Museum,4.39833 , 51.22083
Q2267276,Ethnographic Museum Artis,4.91852 , 52.36573
Q2267622,Tresoar,5.79028 , 53.20333
Q2267655,Q2267655,5.120014 , 52.093136
Q2269936,Naturkundemuseum Görlitz,14.9866 , 51.1535
Q2270713,Q2270713,13.6204 , 52.3046
Q2271287,Q2271287,13.9618 , 47.9008
Q2271909,Sequoiafarm Kaldenkirchen,6.17226 , 51.309
Q2272558,Q2272558,4.36944 , 52.00694
Q2274725,Museum of Santa Cruz,-4.020144 , 39.859691
Q2276082,Norwegian Pharmacy Museum,10.68686944 , 59.90613056
Q2277827,Shelburne Museum,-73.2322 , 44.3727
Q2278527,Shetland Museum,-1.14778 , 60.1586
Q2279464,Energetica,4.92194 , 52.36667
Q2280693,Q2280693,6.18857 , 52.84667
Q2281157,Q2281157,6.573889 , 53.210556
Q2281502,Q2281502,30.395588888 , 59.948875
Q2282304,Transylvanian Museum,9.15645 , 49.2867
Q2282339,Q2282339,7.19226 , 50.6745
Q2285085,Q2285085,6.57577 , 51.95905
Q2285837,"Centre for Fine Arts, Brussels",4.359775 , 50.843713888
Q2287126,Highland Folk Museum,-4.102865 , 57.069708
Q2287744,Museum Godshuis Belle,2.88583 , 50.84958
Q2293076,Q2293076,12.1556 , 48.5334
Q2295408,Smithsonian Environmental Research Center,-76.5426 , 38.8866
Q2297982,Design Museum Holon,34.777608333 , 32.010961111
Q2299923,Natuurhistorisch en Volkenkundig Museum,4.52629 , 51.58871
Q2301926,Clinton Presidential Center,-92.258464 , 34.746433
Q2301997,Q2301997,83.08583333 , 54.86694444
Q2302612,Kurdish Textile Museum,44.009739 , 36.190123
Q2303149,Q2303149,14.4193 , 51.1834
Q2303873,Philips Lightbulb Factory,5.47524 , 51.43927
Q2305235,Žmuidzinavičius Museum,23.910556 , 54.900833
Q2306758,Sincfala,3.24541 , 51.33765
Q2308634,Q2308634,9.99661111 , 53.54475
Q2309691,Q2309691,8.62609 , 53.1674
Q2310276,Soltau Toy Museum,9.83825 , 52.9869
Q2310392,Q2310392,11.6246 , 53.683
Q2310400,Q2310400,12.4948 , 52.7405
Q2310413,Nuremberg Toy Museum,11.0744 , 49.4547
Q2311435,Agropolis,3.86777778 , 43.64611111
Q2313493,Q2313493,13.9654 , 51.8694
Q2313815,National Azulejo Museum,-9.11389 , 38.7244
Q3329777,Ancien Évêché museum,5.73208 , 45.1929
Q3329779,Q3329779,4.7212 , 49.773
Q3329783,Musée de l'Amérique française,-71.20666667 , 46.81416667
Q3329784,Q3329784,0.37056 , 43.9583
Q3329787,Museum of the History of France,2.12197 , 48.8044
Q3329789,Q3329789,3.8777 , 43.6098
Q3329790,Q3329790,0.114369 , 49.4889
Q3329793,Q3329793,2.30247 , 49.8928
Q3329795,Musée de l'Holographie,2.3469444 , 48.8619444
Q3329798,Q3329798,2.15761 , 48.6911
Q3329810,Q3329810,-0.349195 , 48.0978
Q3329811,Q3329811,4.837 , 45.8452
Q3329813,Q3329813,7.48753 , 45.7374
Q3329816,Q3329816,20.4661 , 44.8139
Q3329821,Q3329821,5.20391 , 45.0339
Q3329826,Museum of the History of Iron,6.20889 , 48.6667
Q3329829,Q3329829,6.60076 , 47.0542
Q3329832,Q3329832,6.58011 , 46.0559
Q3329834,Q3329834,-1.17425 , 45.8571
Q3329835,musée de l'hôtel Sandelin,2.25639 , 50.7497
Q3329837,Q3329837,57.5073 , -20.1605
Q3329838,Musée de l'image,6.4472 , 48.184
Q3329839,Q3329839,7.3446 , 47.7451
Q3329845,Q3329845,2.23639 , 48.8931
Q3329847,Q3329847,2.35282 , 48.9278
Q3329849,Q3329849,2.21736 , 48.7547
Q3329851,Q3329851,6.76023 , 46.6417
Q3329853,Q3329853,-0.6332 , 45.7459
Q3329854,Q3329854,3.5135 , 43.2868
Q3329855,Casa del Hombre (La Coruña),-8.40652 , 43.3776
Q3329857,Q3329857,-1.30583 , 45.9436
Q3329858,Q3329858,2.3 , 48.7744
Q3329860,Musée de l'Éventail,2.35472222 , 48.86944444
Q3329862,Q3329862,3.1441 , 50.6616
Q3329864,Q3329864,2.90607 , 50.4461
Q3329865,Q3329865,0.902353 , 49.144
Q3329869,Q3329869,6.0192 , 47.24
Q3329885,Q3329885,-0.833611 , 43.7156
Q3329886,"Musée de la Castre, Cannes",7.01038 , 43.55
Q3329888,Q3329888,4.23861 , 44.4803
Q3329889,Bell and Carillon Museum in Tellin,5.21963 , 50.0817
Q3329890,Q3329890,3.24478 , 50.4343
Q3329892,Q3329892,-3.36375 , 47.7106
Q3329896,Q3329896,4.15405 , 50.1993
Q3329899,musée de la Famenne,5.34359 , 50.227
Q3329900,Q3329900,4.02065 , 50.2374
Q3329902,Q3329902,4.60232 , 49.8384
Q3329904,Q3329904,-64.4785 , 48.834
Q3329906,Q3329906,5.7898 , 45.3499
Q3329918,Musée de la Magie,2.36116667 , 48.85311111
Q3329919,Maritime Museum,5.37528 , 43.2961
Q3329924,Q3329924,7.04386 , 43.5232
Q3329926,Q3329926,1.757897 , 46.001883
Q3329930,Museum of Medicine,4.26704 , 50.814606
Q3329931,Q3329931,1.40764 , 43.5413
Q3329932,Q3329932,2.13811 , 49.2385
Q3329933,Q3329933,2.3391667 , 48.8566667
Q3329935,Q3329935,5.8661 , 46.3871
Q3329939,Q3329939,-0.363556 , 49.1834
Q3329945,Q3329945,3.05472 , 50.6858
Q3329946,Museum of Prehistory of Penmarch,-4.36364 , 47.8259
Q3329947,Q3329947,0.803508 , 46.9218
Q3329948,Musée de la Poupée,2.3543 , 48.8616
Q3329950,Q3329950,0.197639 , 48.0089
Q3329951,Musée de la Reddition,4.0269 , 49.263
Q3329952,Musée de la Romanité,4.36081 , 43.8354
Q3329958,Q3329958,4.0987 , 47.2758
Q3329960,Q3329960,6.03246 , 47.2314
Q3329961,Q3329961,1.26602 , 45.8304
Q3329963,Q3329963,2.5253 , 48.8073
Q3329964,Q3329964,0.16056 , 45.6475
Q3329967,Q3329967,1.87166 , 46.166
Q3329970,Q3329970,6.63164 , 48.3467
Q3329972,Musée de la Serrure,2.3619 , 48.8591
Q3329974,Q3329974,5.03792 , 47.3177
Q3329977,Q3329977,2.7707 , 50.6998
Q3329980,Q3329980,5.603996 , 50.445503
Q3329981,Q3329981,-0.962602 , 45.9357
Q3329982,Museo de la Valltorta,0.06967222 , 40.40615556
Q3329983,Q3329983,-2.30297 , 47.5187
Q3329992,Q3329992,0.900556 , 44.0703
Q3329993,Q3329993,2.09556 , 48.9925
Q3329994,Q3329994,1.25315 , 49.2993
Q3329995,Q3329995,3.2488 , 45.7972
Q3329997,Q3329997,7.1475 , 46.7983
Q3329998,Q3329998,6.9234 , 46.426
Q3329999,Q3329999,-0.783611 , 45.4836
Q3330001,Q3330001,2.24218 , 48.9789
Q3330002,Q3330002,5.74238 , 45.0968
Q3330004,Q3330004,6.84903 , 46.45806
Q3330005,Q3330005,-0.435247 , 43.8453
Q3330006,Q3330006,3.5476 , 45.8537
Q3330009,Q3330009,1.9906 , 49.3716
Q3330012,Q3330012,-0.539444 , 45.7606
Q3330013,Q3330013,1.09356 , 49.4455
Q3330014,Q3330014,3.41167 , 50.1252
Q3330016,Q3330016,7.18523 , 46.1716
Q3330017,Q3330017,1.84119 , 50.6672
Q3330019,Q3330019,0.849905 , 48.7885
Q3330020,Q3330020,2.91127 , 50.6974
Q2497590,"Rector's Palace, Dubrovnik",18.11083333 , 42.64027778
Q2498361,Janzour Museum,13.0275 , 32.8283
Q2500152,Nizami Museum of Azerbaijani Literature,49.8365 , 40.3699
Q2500877,Q2500877,9.27931 , 48.9648
Q2502251,Q2502251,9.52833 , 48.6353
Q2502803,Mikhail Bulgakov Museum,30.51472222 , 50.46083333
Q2506013,Schepenhuis,4.47917 , 51.0275
Q2508592,Glenfinnan railway station,-5.44959 , 56.8724
Q2510009,Vancouver Police Museum,-123.09926389 , 49.28206944
Q2510561,Varadis Palace,100.513272 , 13.755564
Q2514595,Museum Ridder Smidt van Gelder,4.41622 , 51.20454
Q2515275,Provinciaal Museum Constant Permeke,3.100135 , 51.179143
Q2515657,Göhltalmuseum,6.01768 , 50.71518
Q2515989,Modemuseum Hasselt,5.33841 , 50.93366
Q2516360,Q2516360,8.58139 , 50.0822
Q2519854,Q2519854,5.03222 , 52.14417
Q2521245,Q2521245,7.19617 , 51.6093
Q2521269,Museum Bank Indonesia,106.813 , -6.13733
Q2525048,Villa Esche,12.9011 , 50.815
Q2525679,Villa rustica of Altheim-Weirading,13.2619 , 48.2517
Q2525907,Q2525907,7.69972 , 51.3783
Q2526201,Q2526201,6.05139 , 51.7022
Q2526644,musée d'Art moderne et d'Art contemporain,5.57686 , 50.6274
Q2528605,Museum voor Dierkunde,3.724119 , 51.036347
Q2530116,Q2530116,4.974392 , 51.829664
Q2530323,Q2530323,12.1342 , 50.4938
Q2530352,Q2530352,12.3313 , 50.27
Q2530385,Q2530385,4.49141 , 51.91879
Q2530771,Q2530771,5.33389 , 53.07333
Q2532065,Q2532065,9.54778433 , 54.51821072
Q2533099,Retretti,29.29 , 61.80333333
Q2533311,Q2533311,9.67861 , 50.5511
Q2533395,Vor- und frühgeschichtliches Museum Thalmässing,11.2196 , 49.0879
Q2534195,Stedelijk Museum Kampen,5.9167 , 52.5588
Q2534575,Q2534575,8.57658 , 50.2021
Q2534749,Q2534749,6.120724 , 51.333213
Q2536891,Q2536891,10.881 , 48.367
Q2537991,Q2537991,16.3511 , 48.2231
Q2538899,Q2538899,10.6894 , 50.6103
Q2539475,Q2539475,5.24889 , 51.81111
Q2540971,Q2540971,11.3466 , 47.6182
Q2543158,Húsavík Whale Museum,-17.3454 , 66.047
Q2543981,Q2543981,5.64556 , 52.89472
Q2546445,South Australian Museum,138.603 , -34.9208
Q2546552,Q2546552,5.66611 , 51.96444
Q2548467,Q2548467,7.53074 , 52.1728
Q2549659,Bornrif,5.625556 , 53.448889
Q2550380,Mill City Museum,-93.2571 , 44.9794
Q2551068,Q2551068,6.17973 , 52.07587
Q2552619,Museum de Speeltoren,5.03579998 , 52.45940018
Q2553541,Q2553541,13.1679 , 50.8618
Q2553677,Q2553677,-68.947014 , 12.112072
Q2553721,Q2553721,4.711622 , 52.009158
Q2555232,Luxembourg City History Museum,6.1335 , 49.6099
Q2555470,Q2555470,9.04394 , 54.4772
Q2555823,Q2555823,9.2792 , 48.7764
Q2556527,Q2556527,9.1775 , 48.7997
Q2556864,Q2556864,7.8997 , 49.5917
Q2557214,Q2557214,13.5625 , 51.63972222
Q2557538,Q2557538,14.022428 , 48.154003
Q2557563,Q2557563,8.63588 , 49.8647
Q2558850,Arboretum Wespelaar,4.634319 , 50.956792
Q2559236,Museum K-blokken en Oscarkapel,5.25648 , 51.1088
Q2559714,Q2559714,9.51599 , 53.9196
Q2560329,Werkbundarchiv – museum of things,13.420672 , 52.501036
Q2561076,Musée du Vin,2.284686 , 48.857473
Q2562388,Engels Klooster,3.234237 , 51.214705
Q2562904,Museum of Soviet Occupation,44.8004 , 41.6958
Q2563325,Q2563325,10.0783 , 50.968
Q2563745,Vrouwenhuis,6.08978 , 52.5132
Q2563859,Weserburg,8.79889 , 53.0764
Q2563882,Q2563882,8.91583 , 52.0214
Q2564563,Q2564563,8.48292 , 51.161
Q2565054,Q2565054,7.827448 , 50.735391
Q2565108,Westfalen Culinarium,9.11077 , 51.8041
Q2565202,Hortus Botanicus Lovaniensis,4.6901 , 50.8779
Q2565312,Q2565312,7.63653 , 51.9439
Q2565314,Q2565314,7.00187 , 51.956
Q2565323,Q2565323,7.58725 , 51.9476
Q2565499,Sterckshof,4.46253 , 51.21484
Q2565559,Q2565559,7.5843 , 49.4716
Q2565712,"Siegfried Line Museum, Irrel",6.45355 , 49.8516
Q2565876,Salt Cathedral of Zipaquirá,-74.0093 , 5.01876
Q2565911,Q2565911,8.75587 , 50.3361
Q2568050,Q2568050,8.55936 , 52.1397
Q2568649,Q2568649,9.79134 , 48.0958
Q2568990,Q2568990,16.3784 , 48.2183
Q2569057,Q2569057,16.3562 , 48.2119
Q2571470,Q2571470,11.965 , 51.483
Q2571867,Museum of Communism,14.4300109 , 50.0878515
Q2574390,Q2574390,4.886241 , 52.367882
Q2574469,Kerameikos Archaeological Museum,23.717 , 37.967
Q2575273,Nationaal Bus Museum,6.729402777 , 53.165169444
Q2577166,'ndrangheta museum,15.6786 , 38.0569
Q2581796,Q2581796,7.21542 , 50.5997
Q2583240,Wimbledon Lawn Tennis Museum,-0.213333333 , 51.434722222
Q2317183,Diamantmuseum,4.420425 , 51.217775
Q2317773,Q2317773,5.31472 , 53.38917
Q2318005,Pio Cristiano Museum,12.4538 , 41.9065
Q2318521,Kinderboekenmuseum,4.32695 , 52.08191
Q2319468,Pilgrim Hall Museum,-70.6678 , 41.9589
Q2320278,Museum Haarlem,4.63417 , 52.37722
Q2323095,Q2323095,3.57694 , 51.44083
Q2323541,Watersnoodmuseum,3.98194 , 51.6175
Q2324031,Propaganda Poster Art Centre,121.43877 , 31.213741
Q2324404,Museum van de Zusters van Liefde van Jezus en Maria,3.71841 , 51.06409
Q2324596,A. Kasteyev State Museum of Arts,76.919499 , 43.235589
Q2324620,Augsburg textile and industry museum,10.9135 , 48.3638
Q2324938,Staatsgalerie Altdeutsche Meister,10.8992 , 48.365
Q2326313,Q2326313,10.4935 , 48.5765
Q2326319,Q2326319,8.41907 , 49.9994
Q2326348,Q2326348,13.106 , 51.297
Q2326596,Q2326596,5.091517 , 52.157744
Q2326701,Q2326701,13.5347 , 46.9069
Q2327172,Q2327172,13.7778 , 54.0545
Q2327176,Q2327176,11.4665 , 53.8951
Q2327607,Q2327607,10.4927 , 48.8544
Q2327642,Q2327642,8.57389 , 51.3933
Q2327646,Q2327646,11.035 , 50.9792
Q2327648,Q2327648,11.0774 , 49.4565
Q2327651,Q2327651,10.9872 , 49.4737
Q2327655,Dresden City Museum,13.743 , 51.0501
Q2327658,Q2327658,11.9714 , 51.4803
Q2327662,Q2327662,8.44654 , 50.0871
Q2327671,Q2327671,13.4723 , 51.1632
Q2327673,Q2327673,12.8844 , 51.2606
Q2327677,Q2327677,8.44314 , 49.4856
Q2327683,Q2327683,10.487 , 48.8534
Q2327687,City Museum of Stuttgart,9.18417 , 48.7761
Q2327696,Q2327696,6.64333 , 49.7597
Q2327698,Q2327698,13.8444 , 46.6133
Q2327703,Q2327703,16.2435 , 47.816
Q2327707,Q2327707,8.7052 , 49.0373
Q2328230,Stadttheater Grein,14.8548 , 48.2274
Q2328769,Stafford County Museum,-98.600106 , 37.961942
Q2332231,Old Town Hall,14.4206069 , 50.0871083
Q2332855,Q2332855,5.76373 , 52.12378
Q2333459,Q2333459,5.97222 , 51.7
Q2334800,Q2334800,4.708914 , 52.012539
Q2335767,Q2335767,4.762222 , 52.800833
Q2336455,Bokrijk,5.41666667 , 50.96666667
Q2336780,Q2336780,4.466114 , 51.634581
Q2338274,Museum of Theatrical Arts of Serbia,20.4586 , 44.82131
Q2338290,Museum of Yugoslav History,20.45166667 , 44.78666667
Q2339097,Kiev Water Museum,30.53158333 , 50.45263889
Q2339190,Q2339190,10.2416 , 48.6211
Q2339480,Q2339480,9.98658333 , 53.54744444
Q2340077,Q2340077,14.6282 , 48.2554
Q2340507,Sint-Niklaaskerk,2.881111 , 50.850278
Q2340793,Old Royal Palace (Prague),14.4015 , 50.0904
Q2341562,Q2341562,10.5912 , 50.3995
Q2341928,Haags Bus Museum,4.308586 , 52.062058
Q2341984,Q2341984,15.4399 , 47.0751
Q2342262,Jan Cunen Museum,5.526389 , 51.765278
Q2345721,Q2345721,5.41923 , 53.17457
Q2345797,Sterneckerbräu,11.5807 , 48.1354
Q2346055,University of Tartu Old Observatory,26.720115 , 58.378795
Q2346465,De Phenix,5.774386 , 53.447422
Q2348043,Steyr Valley Railway,14.3861 , 48.0403
Q2348840,Q2348840,13.5708 , 46.8042
Q2349011,Stiftung Historische Museen Hamburg,9.97305556 , 53.55111111
Q2349556,Stille-Nacht & Heimatmuseum,12.9364 , 47.9451
Q2349606,Q2349606,16.844 , 48.4111
Q2349759,Q2349759,6.70891 , 51.98109
Q2351445,Archaeological Museum Osijek,18.69527778 , 45.56083333
Q2351733,Stoom Stichting Nederland,4.507306 , 51.944361
Q2352068,Q2352068,8.06319 , 48.3462
Q2353812,Croatian History Museum,15.9723 , 45.816
Q2354677,Nubian Museum,32.889444 , 24.08
Q2354751,Q2354751,13.7294 , 51.0864
Q2354762,Q2354762,11.957889 , 51.502716
Q2354771,Q2354771,9.52083 , 51.31
Q2354776,tramway museum Thielenbruch,7.08527 , 50.97789
Q2354848,Q2354848,7.352922222 , 51.298555555
Q2355491,Match museum,14.159617 , 57.78465
Q2355780,Museum Hilversum,5.17145 , 52.224097
Q2356342,L. A. Mayer Institute for Islamic Art,35.212836111 , 31.768727777
Q2356412,Football Museum,-46.66525 , -23.547222222
Q2356434,Museum Maluku,5.13 , 52.09417
Q2356915,Q2356915,4.82425 , 51.61053
Q2357507,Walraversijde,2.848333 , 51.199722
Q2357520,Polish Library in Paris,2.3557 , 48.8513
Q2357731,Herzl Museum,35.1815 , 31.77248333
Q2358158,Huis van Alijn,3.723337 , 51.057338
Q2359079,Q2359079,2.859471 , 48.183807
Q2359928,Q2359928,9.01057 , 48.6849
Q2360096,Q2360096,10.5317 , 52.2611
Q2360104,Q2360104,9.93692 , 51.536
Q2360106,Q2360106,9.1927 , 48.8963
Q2362660,M – Museum Leuven,4.70444 , 50.87889
Q2363643,Q2363643,6.21028 , 52.85556
Q1624224,Museum Speelklok,5.118899 , 52.090292
Q1624302,Holbæk Museum,11.712589 , 55.716369
Q1625732,Q1625732,6.76165 , 50.5537
Q1626567,Q1626567,10.1293 , 52.0086
Q1627574,Q1627574,10.6851 , 53.8721
Q1628366,Museum of the Rockies,-111.05 , 45.6647
Q1628447,Q1628447,7.78639 , 51.9847
Q1628487,Horniman Museum,-0.060833333 , 51.440555555
Q1629901,Q1629901,13.4789 , 52.7975
Q1630272,Museu Frederic Marès,2.17667 , 41.3844
Q1630909,Q1630909,13.5805 , 52.0273
Q1631251,Museo del vino,12.433538 , 43.025784
Q1631711,Musée Fragonard d'Alfort,2.42305556 , 48.81277778
Q1632115,Museum of Medieval Stockholm,18.070277777 , 59.328333333
Q1632404,Q1632404,14.57794722 , 49.66926389
Q1632646,Q1632646,16.2492 , 47.823
Q1633517,Bernardino Rivadavia Natural Sciences Museum,-58.437742 , -34.605458
Q1633842,National Museum of Scotland,-3.189722222 , 55.947222222
Q1634195,San Casciano Museum,11.1844 , 43.6574
Q1634251,Museum aan het Vrijthof,5.68861111 , 50.84833333
Q1634812,Jægerspris Castle,11.9742 , 55.8565
Q1635322,Q1635322,13.7022 , 51.0301
Q1635704,Ducal palace,10.798611 , 45.159722
Q1636615,Q1636615,9.9702 , 49.7824
Q1636846,Q1636846,10.34666667 , 44.85611111
Q1637298,Humpis-Quartier,9.6159 , 47.7805
Q1637348,Messner Mountain Museum,11.30527782 , 46.48027802
Q1637521,Q1637521,9.14609 , 49.974
Q1639134,Q1639134,10.0022 , 52.3126
Q1639759,Pomeranian State Museum,13.3825 , 54.0947
Q1640876,Lahore Museum,74.308174 , 31.568225
Q1641346,Sydney Mint,151.212 , -33.8689
Q1641994,Q1641994,9.73676 , 49.1113
Q1643654,Q1643654,16.3624 , 47.6357
Q1643659,Q1643659,10.7265 , 48.3123
Q1645842,Q1645842,14.4628 , 48.2578
Q1646305,Museum Aan de Stroom,4.40475556 , 51.22900556
Q1648029,Q1648029,10.8825 , 54.2964
Q1648992,Mozarthaus St. Gilgen,13.3679 , 47.7666
Q1651758,Westfälisches Museum für Naturkunde,7.59111 , 51.9494
Q1652601,Q1652601,11.0278 , 51.7447
Q1653205,Mårbacka,13.233208333 , 59.781266666
Q1653514,Orgelmuseum Fleiter,7.55147 , 52.0008
Q1653672,Q1653672,-68.3 , -54.80555556
Q1656111,Q1656111,7.61167 , 52.0
Q1656644,Kleines Stuckmuseum,7.84739 , 48.019
Q1657623,Q1657623,7.40666 , 51.5491
Q1658130,Q1658130,8.52848 , 50.9133
Q1658131,Icon Museum Recklinghausen,7.1972 , 51.6154
Q1659559,National Coach Museum,-9.199722 , 38.697778
Q1660913,Q1660913,9.73878 , 47.4091
Q1661341,Q1661341,8.68655 , 49.0392
Q1662090,Q1662090,12.8997 , 50.8241
Q1662092,Q1662092,9.65694 , 53.7556
Q1662094,Q1662094,10.8047 , 53.9036
Q1662095,Q1662095,10.1775 , 54.3306
Q1662096,Industriemuseum Lauf,11.2775 , 49.51
Q1662097,Q1662097,8.23025 , 52.6657
Q1662109,SieboldHuis,4.48463 , 52.15969
Q1662112,Q1662112,7.472 , 51.4969
Q1662313,Q1662313,12.51472222 , 41.88888889
Q1662969,Imperial Palace Ingelheim,8.0715 , 49.9775
Q1664219,Innsbruck Stubaital station,11.3979 , 47.2533
Q1664350,Q1664350,9.34153 , 48.7864
Q1664487,Q1664487,7.582861111 , 47.557222222
Q1665046,Q1665046,7.00821 , 51.4518
Q1665804,Q1665804,15.1674 , 48.0052
Q1667112,Q1667112,8.90235 , 49.0978
Q1667722,Q1667722,11.4557 , 53.594
Q1667774,Q1667774,12.164 , 49.6782
Q1667897,Bielsko-Biała Museum and Castle,19.04444444 , 49.82194444
Q1668196,Museo Galileo,11.25595556 , 43.76775556
Q1668511,Q1668511,7.08348 , 51.0089
Q1668596,Danish steam frigate Jylland,10.67378611 , 56.19915278
Q1669062,Linnaeus Hammarby,17.77638889 , 59.8175
Q1669772,Q1669772,7.38333 , 49.4528
Q1670070,Torralba and Ambrona,-2.498506 , 41.160143
Q1670130,Q1670130,12.8894 , 53.0986
Q1670280,Q1670280,11.3396 , 47.9952
Q1670951,Anabaptist Museum,16.6761 , 48.4839
Q1671296,Q1671296,13.0397 , 47.7994
Q1673285,Kulturhistorisches Museum Magdeburg,11.6295 , 52.1256
Q1673841,Q1673841,10.6371 , 47.9138
Q1674686,Israel Railway Museum,35.006711111 , 32.811191666
Q1675310,Q1675310,15.4221343 , 47.051741
Q1677179,Q1677179,11.5767 , 49.9436
Q1678320,The Hunting Museum of Finland,24.736944 , 60.731111
Q1679876,Ensor House,2.91602 , 51.23329
Q1681176,Q1681176,12.3081 , 50.0026
Q1681212,Q1681212,9.15611 , 49.0134
Q1682825,Q1682825,8.067 , 48.3477
Q1684512,"Museum of Natural History, Lima",-77.037334 , -12.077436
Q1685011,Q1685011,16.47252113 , 49.75429052
Q1686386,Museum Van Buuren,4.35381 , 50.810038
Q1686400,Jefferson Davis Presidential Library and Museum,-88.970055555 , 30.393111111
Q1686510,Tromsø University Museum,18.912572222 , 69.634858333
Q1686858,Jenisch House,9.86555556 , 53.5525
Q1687177,Q1687177,11.4271 , 48.7621
Q1688456,Q1688456,13.7375 , 51.05972222
Q854274,Q854274,16.383 , 48.2342
Q854278,Q854278,16.3549 , 48.221
Q854279,Q854279,16.4474 , 48.2489
Q854282,Q854282,16.3554 , 48.2431
Q854283,Q854283,11.4343 , 48.2592
Q854284,Favoriten District Museum,16.3847 , 48.1518
Q854285,Bezirksmuseum Floridsdorf,16.3939 , 48.2633
Q854286,Q854286,16.3708 , 48.2119
Q854289,Q854289,13.4186 , 52.5006
Q854291,Josefstadt District Museum,16.3521 , 48.2104
Q854292,Q854292,16.333 , 48.2179
Q854294,Q854294,16.3016 , 48.1856
Q854296,Q854296,16.3881 , 48.2012
Q854297,Q854297,16.3794 , 48.2164
Q854299,Q854299,16.3544 , 48.1906
Q854300,Q854300,16.3528 , 48.1939
Q854301,Liesing District Museum,16.2925 , 48.1449
Q854304,Q854304,16.327 , 48.2091
Q854306,Q854306,16.3544 , 48.2031
Q854307,Q854307,16.3378 , 48.1822
Q854308,Q854308,16.3049 , 48.1897
Q854310,Q854310,16.3339 , 48.194
Q854312,Q854312,16.3427 , 48.2266
Q854314,Simmering District Museum,16.4138 , 48.1754
Q854318,Q854318,16.3659 , 48.1908
Q855376,Shanghai Science and Technology Museum,121.537778 , 31.220278
Q856094,Bible Museum Münster,7.62344 , 51.9612
Q856097,Q856097,7.16361 , 51.2553
Q856400,Q856400,12.32825 , 45.43627778
Q856430,Dr Sun Yat-sen Museum,114.151 , 22.282
Q857504,Egeskov Castle,10.489444444 , 55.176388888
Q857725,Beer and Oktoberfest Museum,11.5803 , 48.1353
Q859613,Botswana National Museum,25.9195 , -24.6565
Q859732,Certosa di San Martino,14.24124 , 40.843333
Q860166,Arab World Institute,2.35639 , 48.84889
Q860844,Q860844,12.2611 , 53.4583
Q863050,Cincinnati Museum Center at Union Terminal,-84.537778 , 39.11
Q863965,Q863965,14.046 , 52.8642
Q864536,Biological museum,18.09777778 , 59.32722222
Q864767,Ho Chi Minh City Museum,106.69972222 , 10.77611111
Q865607,Currency Museum of the Bank of Japan,139.77179722 , 35.68536944
Q866205,Bischofsturm,9.9975 , 53.55
Q866615,Hong Kong Maritime Museum,114.21 , 22.2181
Q867639,"Cistercian Abbey, Pásztó",19.69527778 , 47.91861111
Q867719,Cité de l'Automobile,7.328611111 , 47.760833333
Q867948,Cleveland Hungarian Heritage Society Museum,-81.6894 , 41.505
Q868140,National Museum of Slavery,13.10472222 , -8.95888889
Q869690,Skulpturensammlung Dresden,13.7444 , 51.0519
Q869696,Q869696,8.03956 , 52.2789
Q871088,Fourneau Saint-Michel,5.335192 , 50.089236
Q873715,Narrenturm,16.3533 , 48.2186
Q874325,Csontváry Museum,18.225166 , 46.07744
Q874373,German Hygiene Museum,13.7466 , 51.0443
Q874518,Q874518,17.250277777 , 47.6125
Q874661,Norwegian Industrial Workers Museum,8.49457 , 59.87203
Q874905,Winter Palace of Prince Eugene,16.3728 , 48.2056
Q875283,Csango Ethnographical Museum,26.190556 , 45.893333
Q875404,Salzburg Residenz,13.0458 , 47.7983
Q875513,Heinrich-Harrer-Museum,14.548 , 46.9367
Q876610,Leipzig Museum of Ethnography,12.3886 , 51.3369
Q876619,Plovdiv Regional Ethnographic Museum,24.75305556 , 42.15
Q876794,Barcelona Wax Museum,2.17722 , 41.3772
Q877136,St. Florian's Priory,14.3783 , 48.2069
Q877252,Grocers' Apartments,9.9802 , 53.548
Q877714,Oakland Museum of California,-122.264 , 37.7986
Q877904,Q877904,11.1778 , 50.3617
Q878029,Romano-Germanic Central Museum,8.26972 , 50.0061
Q879055,Deutsches Zweirad- und NSU-Museum,9.2224 , 49.1916
Q879314,Türkentor,11.5736 , 48.1472
Q879754,South German Railway Museum,9.19268 , 49.1398
Q879819,Moritzburg,11.963333 , 51.486111
Q879960,Kunst- und Ausstellungshalle der Bundesrepublik Deutschland,7.12203 , 50.7142
Q880337,International Wind- and Watermill Museum,10.5478 , 52.4936
Q881418,Otto Lilienthal Museum,13.7047 , 53.8539
Q881603,Q881603,6.64725 , 50.4391
Q881787,Q881787,9.05576 , 51.2038
Q882413,Stiftskirche St. Servatius,11.1368 , 51.7858
Q882600,Hamburg Dungeon,9.98916667 , 53.54388889
Q883163,Q883163,12.4465 , 50.9921
Q884139,German Steam Locomotive Museum,11.5825 , 50.0939
Q884264,Q884264,9.80483 , 52.3625
Q884584,Optical Museum Jena,11.579275 , 50.927811111
Q885171,Düppel,13.2334 , 52.4245
Q885326,Rheinisches Landesmuseum Trier,6.6445 , 49.7518
Q891746,Bomann-Museum,10.0796 , 52.6242
Q892078,Staatsgalerie Moderne Kunst,10.9197 , 48.3675
Q892157,Q892157,8.98733 , 48.955
Q893334,Fries Scheepvaart Museum,5.66343 , 53.03227
Q893988,Bornholm Museum,14.703023 , 55.102438
Q895061,Q895061,9.14607 , 52.1744
Q895178,Q895178,8.311222222 , 47.056972222
Q895571,Q895571,9.0628 , 48.5238
Q896528,German Clock Museum,8.20785 , 48.0509
Q896624,Q896624,6.91792 , 51.5313
Q896647,Ferropolis,12.4489 , 51.7617
Q896726,Q896726,7.20317 , 53.3699
Q896935,Roemer- und Pelizaeus-Museum Hildesheim,9.94393 , 52.14901
Q896952,German Mining Museum,7.21722 , 51.4892
Q896954,Q896954,8.82239 , 49.9648
Q2364085,Museo de Prehistoria y Arqueología de Cantabria,-3.804508333 , 43.462411111
Q2364757,Beeckestijn,4.651936 , 52.452475
Q2365188,Q2365188,8.93625 , 48.4783
Q2365702,Q2365702,-0.5871 , 46.3208
Q2365901,Q2365901,6.48788 , 51.86134
Q2366575,Sunnmøre Museum,6.23416667 , 62.46972222
Q2368156,Q2368156,12.9744 , 50.4806
Q2368569,Q2368569,5.003227777 , 51.816063888
Q2368641,Q2368641,5.159167 , 52.229167
Q2369728,NZH Public Transport Museum,4.616111 , 52.369444
Q2370206,Zanabazar Museum of Fine Arts,106.9097 , 47.9202
Q2370910,Museum of Victims of Communism,28.8325 , 47.02472222
Q2371874,Q2371874,-1.15227 , 46.1541
Q2372049,The Grand Gallery of Evolution,2.35639 , 48.8422
Q2374560,Q2374560,2.2188 , 47.8658
Q2375610,Q2375610,4.86761 , 51.642
Q2376302,Israeli Navy Museum,34.97138889 , 32.83
Q2376342,Q2376342,4.7715883 , 52.465656
Q2377645,Museum of Antioquia,-75.56917 , 6.252379
Q2378866,Q2378866,-71.3575 , 46.8578
Q2379397,Q2379397,1.43655 , 43.5993
Q2381115,South Moravian Museum in Znojmo,16.045182166 , 48.8573175
Q2381466,Q2381466,7.90363 , 51.1259
Q2381941,"Suleymaniye Mosque, Rhodes",28.224166666 , 36.443888888
Q2382575,Westfries Museum,5.058830555 , 52.639172222
Q2383284,Museum of the Ancient Agora,23.724222222 , 37.975083333
Q2383302,Q2383302,2.35565 , 48.8512
Q2383603,Dutch Funeral museum,4.93861 , 52.34611
Q2383834,Museum of Newport History,-71.316111 , 41.489722
Q2383929,The Orkney Museum,-2.96084 , 58.98152
Q2386248,Q2386248,8.5691 , 49.6543
Q2386256,Q2386256,7.80716 , 48.2855
Q2386954,Q2386954,5.51428 , 47.6169
Q2386980,Musée départemental breton,-4.10253 , 47.9951
Q2388281,Q2388281,0.935838 , 48.9551
Q2388491,Q2388491,6.93 , 52.31306
Q2389498,Musée de la Révolution française,5.77305556 , 45.07555556
Q2389536,Q2389536,-1.5675 , 43.4833
Q2389940,Museum of the American Railroad,-96.7626 , 32.7826
Q2391061,Talzy Museum,104.66916667 , 52.0
Q2391572,musée des Avelines,2.2085 , 48.8425
Q2392841,Q2392841,7.052693 , 43.579702
Q2394952,Q2394952,5.12132 , 52.08958
Q2395588,Q2395588,4.75444 , 52.95778
Q2398223,Te Umanibong,173.12142 , 1.3665
Q2398539,Natural History Museum of Nantes,-1.564988 , 47.212856
Q2399429,Q2399429,31.2305 , 30.0545
Q2399452,Q2399452,15.343824 , 46.970541
Q2400780,Jardins de Salagon,5.765333 , 43.936426
Q2401304,Musée Provincial des Arts Anciens,4.86529 , 50.46551
Q2401440,Q2401440,7.24185 , 51.4888
Q2401758,Telemann-Museum,9.97654722 , 53.55123889
Q2403459,Tenerife Espacio de las Artes,-16.2514 , 28.4642
Q3330023,musée de la lessive,5.86866 , 50.4884
Q3330027,Musée de la machine à écrire de Lausanne,6.62367 , 46.5247
Q3330030,Q3330030,6.639483 , 46.52408
Q3330032,Q3330032,4.3827 , 46.7013
Q3330033,Q3330033,0.722042 , 49.5245
Q3330035,Q3330035,6.63308 , 47.6999
Q3330037,Q3330037,3.34436 , 50.3327
Q3330038,Q3330038,2.73363 , 47.6432
Q3330043,Q3330043,10.1854 , 36.8046
Q3330044,Q3330044,5.23137 , 46.20207
Q3330047,Q3330047,4.75395 , 49.8611
Q3330049,Mummification Museum,32.644444444 , 25.708055555
Q3330055,Q3330055,-0.958333 , 45.7325
Q3330058,Q3330058,7.91339 , 48.8995
Q3330061,Q3330061,10.1785 , 36.7966
Q3330063,Muscat Gate Museum,58.5869 , 23.6175
Q3330067,Q3330067,0.15667 , 45.6494
Q3330069,Q3330069,3.08645 , 50.6932
Q3330071,Q3330071,5.4588 , 45.7827
Q3330075,Q3330075,-0.550382 , 47.4271
Q3330076,Q3330076,2.1518 , 48.769
Q3330080,Q3330080,2.6434 , 50.7953
Q3330081,Q3330081,2.7775 , 43.6492
Q3330084,Q3330084,2.04249 , 48.7832
Q3330086,Musée de la viscose,5.7028 , 45.1573
Q3330088,Q3330088,2.5837 , 49.2073
Q3330091,Q3330091,-0.48927 , 47.4468
Q3330092,Sendai City Museum,140.856685 , 38.256065
Q3330096,Q3330096,7.28919 , 43.6979
Q3330098,Musée de Minéralogie,2.3396 , 48.8456
Q3330100,Q3330100,3.18111 , 50.6239
Q3330101,Musée de minéralogie,7.763179 , 48.583503
Q3330102,prehistoric museum,-3.0783 , 47.5847
Q3330104,Q3330104,7.76554 , 48.5835
Q3330105,musée de zoologie de Liège,5.5788 , 50.6388
Q3330107,Q3330107,-72.821666666 , 46.071111111
Q3330108,Q3330108,-65.7997 , 43.6658
Q3330109,Q3330109,-0.846111 , 45.6925
Q3330111,Q3330111,2.35959 , 48.8596
Q3330112,Q3330112,3.22111 , 50.699
Q3330115,Q3330115,5.46872 , 43.7386
Q3330117,Q3330117,2.53439 , 50.7214
Q3330118,Q3330118,4.02777 , 50.1442
Q3330120,Q3330120,-0.506111 , 45.7531
Q3330127,Q3330127,-0.960205 , 45.9366
Q3330128,Q3330128,-0.5188 , 45.9454
Q3330131,Q3330131,5.91967 , 43.411
Q3330133,Q3330133,-73.5766925 , 45.5132164
Q3330134,"Jacobin Museum, Auch",0.5874 , 43.6472
Q3330138,Musée des Matériaux du Centre de Recherche sur les Monuments Historiques,2.2875 , 48.8625
Q3330144,Q3330144,0.380417 , 49.7555
Q3330145,Fort Worth Museum of Science and History,-97.3694 , 32.7444
Q3330146,Musée des Tissus et des Arts décoratifs,4.83184 , 45.7532
Q3330147,musée des Transmissions – espace Ferrié,-1.62666 , 48.1221
Q3330149,The Royal Tombs of Sipan Museum,-79.8994 , -6.705
Q3330152,"Museum of Transport, Greater Manchester",-2.2332 , 53.5029
Q3330154,Q3330154,-72.5358 , 46.3443
Q3330155,Q3330155,-0.5111 , 46.0478
Q3330157,Q3330157,5.36786 , 43.3002
Q3330160,Q3330160,7.21612 , 43.6681
Q3330161,Q3330161,5.93715 , 43.1077
Q3330164,Q3330164,-0.33278 , 45.6953
Q3330166,State museum of applied arts of Uzbekistan,69.2595 , 41.30110278
Q3330168,Q3330168,-0.579997 , 44.8389
Q3330172,Q3330172,-73.5538 , 45.5539
Q3330173,Q3330173,55.4114 , -21.2669
Q3330178,Museum of Popular Arts and Traditions,3.060963 , 36.786724
Q3330179,Q3330179,4.746383 , 43.824066
Q3330181,Q3330181,4.99001 , 46.221
Q3330182,Q3330182,2.25301 , 48.8795
Q3330186,Musée Denys-Puech,2.57820833 , 44.34886111
Q3330187,Islamic Arts Museum Malaysia,101.689 , 3.14292
Q3330189,Musée d'Angoulême,0.15222 , 45.6492
Q3330196,Q3330196,1.85148 , 50.9567
Q3330197,Musée des beaux-arts de Chambéry,5.91963 , 45.5683
Q3330220,Musée des beaux-arts de Quimper,-4.1023 , 47.9962
Q3330228,musée des beaux-arts et d'archéologie Joseph-Déchelette,4.069469 , 46.034953
Q3330234,Musée des Beaux-Arts et de la Dentelle d'Alençon,0.083272 , 48.431
Q3330236,Q3330236,2.12829 , 48.8038
Q3330238,Museo de Creencias y Religiosidad Popular del Pirineo Central,0.197555555 , 42.242916666
Q3330240,Q3330240,3.99568 , 44.9394
Q3330241,Q3330241,2.73568 , 47.6418
Q3330242,Museum of the Roman Docks,5.36832 , 43.2968
Q3330245,Q3330245,5.03667 , 49.6589
Q3330251,Q3330251,1.4085 , 48.8973
Q3330252,Museum of Medical Instruments of the Hospital of Toulouse,1.43655 , 43.5993
Q3330253,Q3330253,0.755068 , 49.6173
Q3330255,musée des lettres et manuscrits,4.35517 , 50.8478
Q3330256,Q3330256,-1.15629 , 46.1519
Q3330257,Q3330257,4.82732 , 45.7621
Q3330260,Museum of French Monuments,2.3345 , 48.8576
Q3330262,Q3330262,-0.99348 , 47.0994
Q3330263,Q3330263,3.14494 , 50.6374
Q3330266,Braille League Museum of Birds,4.340767 , 50.83465
Q3330271,Q3330271,-72.6097 , 46.2326
Q3330272,Q3330272,1.07576 , 49.5475
Q3330275,Q3330275,-0.770449 , 48.0659
Q3330277,Q3330277,3.0766 , 50.3741
Q3330279,Trondheim Science Museum,10.4003 , 63.4303
Q2583379,Ditsong National Museum of Natural History,28.189 , -25.7533
Q2583389,Q2583389,11.8539 , 52.607
Q2583681,Grand Egyptian Museum,31.119722 , 29.993611
Q2583938,Q2583938,5.41861 , 53.17694
Q2584307,Q2584307,5.21583 , 53.36097
Q2585168,Winterthur Museum and Country Estate,-75.600833 , 39.805833
Q2585923,Wirtschaftsmuseum,9.615395 , 47.780396
Q2586373,Musée du Panthéon National Haïtien,-72.3369595 , 18.5428439
Q2586681,Q2586681,11.1326 , 48.4602
Q2586716,Walter Roth Museum of Anthropology,-58.1645 , 6.81681
Q2588025,Q2588025,1.995648 , 48.955683
Q2588709,Q2588709,5.20061 , 52.10631
Q2589172,Q2589172,6.17523 , 51.37197
Q2589862,Ravenhof Castle,3.09947 , 51.0642
Q2591435,Ivanovka estate,41.579475 , 52.24735278
Q2592412,Q2592412,9.04436 , 44.3817
Q2592729,Q2592729,6.99 , 52.30472
Q2593361,Museum van het Kamp van Beverlo,5.27322 , 51.11864
Q2593585,Windmill museum,4.80793 , 52.46811
Q2595182,Q2595182,7.14774 , 51.2577
Q2595707,Nairobi National Museum,36.8145 , -1.27404
Q2595980,Q2595980,5.081389 , 51.56
Q2596585,Q2596585,7.31583 , 51.2208
Q2597719,Musée de la Franc-Maçonnerie,2.3431 , 48.8749
Q2598142,Mariners' Museum,-76.4878 , 37.055
Q2598787,Stedelijk Museum Roermond,5.988314 , 51.188228
Q2600354,Q2600354,5.09786 , 52.008215
Q2603814,World Heritage Rock Art Centre - Alta Museum,23.18655556 , 69.94747222
Q2611559,’t Schippershof,3.122972 , 50.792706
Q2613520,"Museum of Ancient Greek, Byzantine and Post-Byzantine Instruments",22.941944444 , 40.632222222
Q2613530,Cinema Museum of Thessaloniki,22.9355 , 40.6329
Q2613770,Nationaal Jenevermuseum Hasselt,5.340797 , 50.932708
Q2616757,District Six Museum,18.4237 , -33.9277
Q2618426,Zagreb City Museum,15.975 , 45.8183
Q2618661,Technical Museum,15.9645 , 45.8035
Q2620198,Ticho House,35.2196 , 31.784
Q2620299,Independence Hall,34.770555555 , 32.062777777
Q2621420,Q2621420,5.118771 , 52.09569
Q2622128,Q2622128,6.136706 , 51.344156
Q2623452,Q2623452,5.05573056 , 51.682125
Q2623739,Tikotin Museum of Japanese Art,34.9854 , 32.8093
Q2625302,Museum De Kelder,5.088006 , 51.068064
Q2625747,CosmoCaixa Barcelona,2.131111 , 41.413056
Q2625926,Ars Aevi,18.41277778 , 43.85472222
Q2628206,Palace of Charles of Lorraine,4.35722 , 50.84306
Q2630165,Quinta da Regaleira,-9.39603056 , 38.79635278
Q2630225,Q2630225,4.87221 , 52.38608
Q2632448,Q2632448,5.131389 , 52.087222
Q2632983,Q2632983,5.92356 , 51.98645
Q2633772,Q2633772,5.04306 , 52.30694
Q2636377,Q2636377,5.22381 , 51.95739
Q2636543,Q2636543,7.85305 , 48.0664
Q2636679,Heichal Shlomo,35.21691111 , 31.77578889
Q2637078,Alaska Native Heritage Center,-149.717 , 61.2328
Q2638057,French submarine Argonaute,2.38958333 , 48.89451389
Q2638298,De Groene Tente,3.22892 , 51.275
Q2642379,One Street Museum,30.5175 , 50.46222222
Q2643179,Córdoba Synagogue,-4.78333333 , 37.87972222
Q2643296,Q2643296,3.52 , 51.57
Q2644208,Q2644208,8.817397 , 44.429375
Q2645114,Q2645114,4.749933 , 52.383231
Q2646039,Q2646039,4.762222 , 52.800833
Q2650841,Alpine Club Museum,11.3949 , 47.2689
Q2651515,Alstertal-Museum,10.07305556 , 53.64333333
Q2652153,Fiji Museum,178.425735 , -18.149666
Q2653692,Louis Couperus Museum,4.30783 , 52.08869
Q2654416,Q2654416,4.487806 , 51.922764
Q2654419,Paris Sewer Museum,2.302528 , 48.862611
Q2654815,Q2654815,6.06694 , 52.475
Q2655080,ArsFIGURA,6.38399 , 50.3524
Q2655184,Q2655184,7.025 , 52.75583
Q2655828,Museum of French History,2.359593 , 48.85964
Q2658087,Q2658087,5.35556 , 51.75361
Q2662909,Rockox House,4.40611 , 51.22167
Q2663362,Q2663362,5.58619 , 53.10814
Q2664327,Ukrainian National Chornobyl Museum,30.5172 , 50.4664
Q2664428,National Museum of History of Azerbaijan,49.84 , 40.369444
Q2668693,International Spy Museum,-77.0234 , 38.8969
Q2668933,Nusantara Museum,4.354861 , 52.012447
Q2670665,Q2670665,5.3075 , 51.688333
Q2675491,Q2675491,4.74372 , 51.57817
Q2675643,Q2675643,4.77167 , 52.00139
Q2676195,Chabot Museum,4.47222 , 51.91444
Q2676363,Montefiore Windmill,35.224175 , 31.771475
Q2679817,Dean Gallery,-3.224097222 , 55.951811111
Q2679819,Q2679819,6.798611111 , 52.930722222
Q2680234,Q2680234,35.0731 , 32.9242
Q2681184,Q2681184,6.17002 , 52.26011
Q2683308,Q2683308,5.775 , 53.45028
Q2684047,Cyprus Police Museum,33.37423 , 35.14464
Q2685462,Sint Pieters Museum,5.69443 , 50.82241
Q2686462,Museu da Tabanka,-23.667 , 15.096444444
Q2687767,Uenohara site,130.802 , 31.7119
Q2688029,Boganda National Museum,18.57698 , 4.36411
Q2688040,Gourmet Museum and Library,5.3614 , 50.5572
Q2689323,Cayman Motor Museum,-81.4156 , 19.3823
Q2690006,Q2690006,4.44889 , 51.90806
Q1689625,Q1689625,16.3186 , 48.2385
Q1689732,Q1689732,14.7269 , 48.1958
Q1692137,Q1692137,11.1481 , 52.8491
Q1693493,Q1693493,11.6752 , 51.9486
Q1694054,Q1694054,13.7735 , 47.8138
Q1695656,Q1695656,7.07517 , 50.983
Q1696232,Ban Kao national museum,99.311385 , 13.975237
Q1698550,Naturkundemuseum Leipzig,12.3709 , 51.3449
Q1699381,Q1699381,9.47806 , 53.6103
Q1700293,Q1700293,10.0705 , 48.6787
Q1702827,Q1702827,10.2425 , 51.8078
Q1703893,Lysøen,5.36871 , 60.211
Q1704043,Jorvik Viking Centre,-1.08056 , 53.9578
Q1704145,Josef-Hegenbarth-Archiv,13.8204 , 51.0501
Q1705530,Musée de la civilisation,-71.202383333 , 46.815108333
Q1705692,Q1705692,13.771 , 48.3442
Q1706708,Q1706708,8.065 , 51.3969
Q1707242,Q1707242,7.6974245 , 45.0596161
Q1708313,Q1708313,10.5686 , 47.1354
Q1708620,IJzertoren,2.853333333 , 51.031666666
Q1709513,Q1709513,12.1032 , 49.0199
Q1710166,Q1710166,9.43312 , 54.7931
Q1710288,Q1710288,9.42722 , 52.4572
Q1711655,"Glass Museum, Passau",13.4686 , 48.5753
Q1713172,Julliberrie's Grave,0.97418 , 51.2402
Q1713506,Junibacken,18.088888888 , 59.329444444
Q1713629,Junkerhaus,8.91704 , 52.026
Q1713953,Q1713953,8.6275 , 52.3872
Q1714154,Q1714154,12.4611 , 52.8908
Q1716813,Q1716813,10.892 , 48.3655
Q1716814,Q1716814,9.8721 , 49.8339
Q1716823,Jüdisches Museum Franken,10.9903 , 49.4771
Q1716824,Q1716824,9.66833333 , 54.29916667
Q1716827,Jewish Museum Vienna,16.369 , 48.2072
Q1717744,Q1717744,9.74 , 52.3875
Q1717751,Q1717751,10.4914 , 48.9289
Q1718294,René Magritte Museum,4.33583 , 50.87689
Q1718706,Museum Pachten,6.70853 , 49.355
Q1719763,Q1719763,12.8925 , 53.0996
Q1720629,Q1720629,16.4911 , 48.5889
Q1720764,Q1720764,13.2312 , 49.0141
Q1721563,Q1721563,6.55944444 , 51.33027778
Q1721656,Q1721656,11.3068 , 47.9618
Q1722508,Q1722508,11.6722 , 48.2286
Q1723135,Q1723135,9.2515 , 49.6995
Q1724924,Q1724924,11.2942 , 51.4785
Q1725173,Swiss Customs Museum,9.02108 , 45.99935
Q1725826,Q1725826,10.6296 , 47.5482
Q1726921,Q1726921,13.4256 , 52.5272
Q1727639,Q1727639,9.95897 , 48.2229
Q1728249,Q1728249,11.0484 , 51.8965
Q1728952,Q1728952,9.02602 , 48.7019
Q1730113,Q1730113,13.6735 , 51.1027
Q1731899,Aviation Museum Hannover-Laatzen,9.79139 , 52.3222
Q1734515,Aggsbach Charterhouse,15.4244 , 48.2939
Q1735001,Q1735001,12.3977507 , 45.5407006
Q1735683,Q1735683,8.27784 , 49.1197
Q1736071,Katharinenhof Kranenburg,6.00778 , 51.7889
Q1738414,Panorama Mesdag,4.304444444 , 52.085
